stop_id,stop_code,stop_name,stop_desc,stop_lat,stop_lon,zone_id,stop_url,location_type,parent_station,stop_timezone,wheelchair_boarding,platform_code
2:100:JDFS-10,,"Háj u Duchcova,,Dolní Háj žel.zast.",,50.6193199,13.7252531,448,,0,,Europe/Prague,0,
2:100:JDFS-11,,"Hostomice,,kolonie",,50.5890278,13.7937884,481,,0,,Europe/Prague,0,
2:100:JDFS-23,,"Osek,,Kolonie",,50.62249945,13.70443395,443,,0,,Europe/Prague,0,
2:100:JDFS-26,,Zabrušany,,50.60505485,13.78737355,493,,0,,Europe/Prague,0,
2:100:JDFS-27,,"Zabrušany,,vodárna",,50.60327,13.77587655,493,,0,,Europe/Prague,0,
2:100:JDFS-31,,"Osek,,Zbrojnice",,50.62290215,13.697062,443,,0,,Europe/Prague,0,
2:100:JDFS-32,,"Osek,,sídliště",,50.6300621,13.696517,443,,0,,Europe/Prague,0,
2:100:JDFS-34,,"Zabrušany,Želénky,Fučík",,50.59254,13.78752235,493,,0,,Europe/Prague,0,
2:100:JDFS-35,,"Zabrušany,Želénky,křiž.",,50.5986652,13.78191155,493,,0,,Europe/Prague,0,
2:100:JDFS-5,,"Duchcov,,kino",,50.60351165,13.7478523,411,,0,,Europe/Prague,0,
2:100:JDFS-6,,"Duchcov,,nem.",,50.6106471,13.7415514,411,,0,,Europe/Prague,0,
2:100:JDFS-7,,"Duchcov,,Osecká",,50.607105,13.74585965,411,,0,,Europe/Prague,0,
2:100:JDFS-8,,"Duchcov,,Želenská",,50.6024469,13.7604976,411,,0,,Europe/Prague,0,
2:100:JDFS-9,,"Háj u Duchcova,,Dolní Háj rozc.",,50.6234080333333,13.7183818666667,448,,0,,Europe/Prague,0,
2:101:JDFS-1,,Boleboř,,50.53995,13.4139962,572,,0,,Europe/Prague,0,
2:101:JDFS-11,,"Jirkov,,Jindřišská",,50.51773745,13.41998915,511,,0,,Europe/Prague,0,
2:101:JDFS-12,,"Jirkov,,Jiráskova",,50.50723455,13.44264905,511,,0,,Europe/Prague,0,
2:101:JDFS-14,,"Hora Sv.Kateřiny,,rozc.Malý Háj",,50.5862,13.41972,253,,0,,Europe/Prague,0,
2:101:JDFS-15,,"Malý Háj,Lesná,rozc.",,50.5794029,13.4206781,253,,0,,Europe/Prague,0,
2:101:JDFS-17,,Orasín,,50.5352745,13.4008751,572,,0,,Europe/Prague,0,
2:101:JDFS-18,,Otvice,,50.47983,13.45109,501,,0,,Europe/Prague,0,
2:101:JDFS-2,,"Boleboř,,rozc.Orasín 1.0",,50.53631,13.4156027,572,,0,,Europe/Prague,0,
2:101:JDFS-21,,"Chomutov,,u hřbitova",,50.454155,13.41475,501,,0,,Europe/Prague,0,
2:101:JDFS-22,,"Chomutov,,poliklinika",,50.45539,13.4089527,501,,0,,Europe/Prague,0,
2:101:JDFS-25,,"Chomutov,,Aquasvět",,50.46869,13.4265842,501,,0,,Europe/Prague,0,
2:101:JDFS-26,,"Hora Sv.Kateřiny,Malý Háj",,50.5862,13.41972,253,,0,,Europe/Prague,0,
2:102:JDFS-1,,"Březno,,zdrav.stř.",,50.4000982,13.4240136,585,,0,,Europe/Prague,0,
2:102:JDFS-13,,"Březno,Stranná",,50.37043,13.4503908,585,,0,,Europe/Prague,0,
2:102:JDFS-14,,"Březno,Střezov,rozc.0.2",,50.3912182,13.43462705,585,,0,,Europe/Prague,0,
2:102:JDFS-16,,"Březno,Vičice",,50.371109,13.4346485,"585,585",,0,,Europe/Prague,0,
2:102:JDFS-17,,"Březno,Vičice,rozc.2.0",,50.3797512,13.430119,585,,0,,Europe/Prague,0,
2:102:JDFS-2,,"Droužkovice,,ObÚ",,50.4305344,13.43019055,501,,0,,Europe/Prague,0,
2:102:JDFS-24,,"Chomutov,,Rozcestí",,50.4439069,13.432714,501,,0,,Europe/Prague,0,
2:102:JDFS-7,,Nechranice,,50.36931,13.4201469,585,,0,,Europe/Prague,0,
2:102:JDFS-8,,"Nechranice,,na mostě",,50.3705939,13.41922475,585,,0,,Europe/Prague,0,
2:103:JDFS-1,,"Břvany,,host.",,50.4017754,13.7237768,857,,0,,Europe/Prague,0,
2:103:JDFS-10,,"Lenešice,,ovčín",,50.3886375,13.7449789,852,,0,,Europe/Prague,0,
2:103:JDFS-11,,"Lenešice,,žel.st.",,50.37689315,13.77178195,852,,0,,Europe/Prague,0,
2:103:JDFS-13,,"Louny,,otočka u kotelny",,50.35712,13.7836285,801,,0,,Europe/Prague,0,
2:103:JDFS-15,,"Výškov,Počerady",,50.4185448,13.6877,815,,0,,Europe/Prague,0,
2:103:JDFS-16,,"Výškov,Počerady,Elna",,50.4266129,13.6829624,243,,0,,Europe/Prague,0,
2:103:JDFS-18,,"Lenešice,,Na Samotě",,50.3925972,13.7257757,852,,0,,Europe/Prague,0,
2:103:JDFS-4,,"Dobroměřice,,STS",,50.37223,13.78428,856,,0,,Europe/Prague,0,
2:103:JDFS-5,,"Dobroměřice,,U Kádnera",,50.37561155,13.7779007,856,,0,,Europe/Prague,0,
2:103:JDFS-6,,"Dobroměřice,,ZZN",,50.3736076,13.7817335,856,,0,,Europe/Prague,0,
2:103:JDFS-7,,"Lenešice,,nákup.stř.",,50.3773956,13.76492405,852,,0,,Europe/Prague,0,
2:103:JDFS-8,,"Lenešice,,nám.",,50.3762646,13.76171635,852,,0,,Europe/Prague,0,
2:103:JDFS-9,,"Lenešice,,osada Mlýnek",,50.3829212,13.7563467,852,,0,,Europe/Prague,0,
2:104:JDFS-1,,"Nové Sedlo,Břežany",,50.3502731,13.4613523,963,,0,,Europe/Prague,0,
2:104:JDFS-10,,"Nové Sedlo,Žabokliky",,50.3299,13.4656668,963,,0,,Europe/Prague,0,
2:104:JDFS-11,,"Nové Sedlo,Žabokliky,žel.st.",,50.3299,13.4656668,963,,0,,Europe/Prague,0,
2:104:JDFS-6,,"Nové Sedlo,,ÚNV",,50.3450851,13.471653,963,,0,,Europe/Prague,0,
2:105:JDFS-11,,"Liběšice,Mladé",,50.5738449,14.25876095,627,,0,,Europe/Prague,0,
2:105:JDFS-14,,"Liběšice,Soběnice",,50.56968105,14.24163005,627,,0,,Europe/Prague,0,
2:105:JDFS-4,,"Liběšice,Horní Chobolice",,50.57719805,14.26854515,635,,0,,Europe/Prague,0,
2:105:JDFS-5,,Horní Řepčice,,50.5578766,14.2518835,638,,0,,Europe/Prague,0,
2:106:JDFS-1,,"Úštěk,Brusov",,50.6268787,14.3243071,631,,0,,Europe/Prague,0,
2:106:JDFS-10,,"Úštěk,Starý Týn,rozc.",,50.59878645,14.3413591,631,,0,,Europe/Prague,0,
2:106:JDFS-15,,"Úštěk,Ličenice,rozc.",,50.6074276,14.34286405,631,,0,,Europe/Prague,0,
2:106:JDFS-3,,"Úštěk,Držovice",,50.61307825,14.3266201,631,,0,,Europe/Prague,0,
2:106:JDFS-7,,"Úštěk,Konojedy",,50.6281776,14.3513832,631,,0,,Europe/Prague,0,
2:106:JDFS-9,,"Úštěk,Starý Týn",,50.6060791,14.3292738,631,,0,,Europe/Prague,0,
2:107:JDFS-1,,"Dubí,,hotel Sport",,50.694395,13.7691979,421,,0,,Europe/Prague,0,
2:107:JDFS-10,,"Teplice,,nem.",,50.6371536,13.81136705,401,,0,,Europe/Prague,1,
2:107:JDFS-12,,"Teplice,Řetenice,sídliště",,50.6378688,13.80233145,401,,0,,Europe/Prague,1,
2:107:JDFS-13,,"Dubí,Bystřice,B.Němcové",,50.6694811,13.8083997,421,,0,,Europe/Prague,0,
2:107:JDFS-14,,"Dubí,Bystřice,Dlouhá",,50.67100525,13.8053408,421,,0,,Europe/Prague,0,
2:107:JDFS-15,,"Dubí,Bystřice,papírny",,50.66593935,13.8112574,421,,0,,Europe/Prague,0,
2:107:JDFS-17,,"Dubí,,lázně",,50.6850433,13.7837315,421,,0,,Europe/Prague,0,
2:107:JDFS-18,,"Dubí,,porcelánka",,50.67432,13.7963796,421,,0,,Europe/Prague,0,
2:107:JDFS-19,,"Dubí,,škola",,50.6799714,13.78947545,421,,0,,Europe/Prague,0,
2:107:JDFS-2,,"Dubí,,kostel",,50.68293,13.7873497,421,,0,,Europe/Prague,0,
2:107:JDFS-23,,"Košťany,Střelná,u kapličky",,50.6665535,13.7490587,447,,0,,Europe/Prague,0,
2:107:JDFS-24,,"Košťany,,škola",,50.6551247,13.7534685,447,,0,,Europe/Prague,0,
2:107:JDFS-25,,"Novosedlice,,Bystřická",,50.6604919,13.8179674,421,,0,,Europe/Prague,0,
2:107:JDFS-26,,"Novosedlice,,Lípa",,50.6569252,13.8261595,421,,0,,Europe/Prague,0,
2:107:JDFS-27,,"Novosedlice,,SEKO",,50.6644669,13.8152828,421,,0,,Europe/Prague,0,
2:107:JDFS-28,,"Teplice,,Alejní",,50.6394887,13.8223686,401,,0,,Europe/Prague,1,
2:107:JDFS-3,,"Dubí,,MěÚ",,50.676796,13.791049,421,,0,,Europe/Prague,0,
2:107:JDFS-30,,"Teplice,,Dopravní podnik",,50.65624885,13.8324175,401,,0,,Europe/Prague,0,
2:107:JDFS-32,,"Teplice,Hudcov,Panorama",,50.63718,13.79130315,401,,0,,Europe/Prague,0,
2:107:JDFS-33,,"Teplice,,Městské sály",,50.6545849,13.83892915,401,,0,,Europe/Prague,0,
2:107:JDFS-35,,"Košťany,Střelná,Zátiší",,50.66219,13.75183105,447,,0,,Europe/Prague,1,
2:107:JDFS-36,,"Dubí,Bystřice,Tovární I",,50.670337975,13.80143735,421,,0,,Europe/Prague,0,
2:107:JDFS-37,,"Dubí,Bystřice,Tovární II",,50.670337975,13.80143735,421,,0,,Europe/Prague,0,
2:107:JDFS-4,,"Dubí,,žel.st.",,50.6993136,13.76314235,421,,0,,Europe/Prague,0,
2:107:JDFS-6,,"Košťany,,Kamenný pahorek",,50.64462585,13.766911175,447,,0,,Europe/Prague,0,
2:107:JDFS-7,,"Košťany,,nám.",,50.65574455,13.7560773,447,,0,,Europe/Prague,0,
2:107:JDFS-8,,"Košťany,,vjezd",,50.65098175,13.76177025,447,,0,,Europe/Prague,0,
2:108:JDFS-17,,Malé Březno,,50.673317,14.1713047,152,,0,,Europe/Prague,0,
2:108:JDFS-33,,Týniště,,49.8860474,15.2353344,153,,0,,Europe/Prague,0,
2:108:JDFS-45,,"Valtířov,osada",,,,151,,0,,Europe/Prague,0,
2:108:JDFS-46,,"Valtířov,žel.st.",,,,151,,0,,Europe/Prague,0,
2:109:JDFS-10,,"Třebenice,Medvědice",,50.5173836,13.9258194,736,,0,,Europe/Prague,0,
2:109:JDFS-11,,"Třebenice,Mrsklesy",,50.5077629,13.9284811,736,,0,,Europe/Prague,0,
2:109:JDFS-14,,"Třebenice,Teplá",,50.4887286,13.9670553,731,,0,,Europe/Prague,0,
2:109:JDFS-17,,Vlastislav,,50.49713355,13.9555354,735,,0,,Europe/Prague,0,
2:109:JDFS-18,,"Vlastislav,,rozc.",,50.49402215,13.9579959,735,,0,,Europe/Prague,0,
2:109:JDFS-19,,"Třebenice,Kocourov",,50.5245171,13.94297,736,,0,,Europe/Prague,0,
2:109:JDFS-4,,"Třebenice,Kololeč,rozc.",,50.4790324,13.9804206,731,,0,,Europe/Prague,0,
2:109:JDFS-5,,"Třebenice,Lipá",,50.51241875,13.92507695,736,,0,,Europe/Prague,0,
2:10:JDFS-1,,"Úštěk,Dolní Vysoké",,50.604828,14.29698515,631,,0,,Europe/Prague,0,
2:10:JDFS-10,,"Leština,host.",,50.66045355,14.1963377,152,,0,,Europe/Prague,0,
2:10:JDFS-11,,"Lovečkovice,Levínské Petrovice,rozc.",,50.63308905,14.27918145,641,,0,,Europe/Prague,0,
2:10:JDFS-12,,"Libouchec,Nový Libouchec",,50.7754985,14.0373117,131,,0,,Europe/Prague,0,
2:10:JDFS-13,,"Libouchec,ObÚ",,50.7580376,14.0415144,131,,0,,Europe/Prague,0,
2:10:JDFS-14,,"Libouchec,statek",,50.7539959,14.0351014,131,,0,,Europe/Prague,0,
2:10:JDFS-17,,Malé Březno,,50.6736,14.1709137,152,,0,,Europe/Prague,0,
2:10:JDFS-18,,"Velké Chvojno,Malé Chvojno,rozc.",,50.7439865666667,14.0222282,131,,0,,Europe/Prague,0,
2:10:JDFS-19,,"Lovečkovice,Mukařov,rozc.0.4",,50.64772035,14.2909832,641,,0,,Europe/Prague,0,
2:10:JDFS-2,,"Úštěk,Habřina",,50.59712255,14.3090105,631,,0,,Europe/Prague,0,
2:10:JDFS-20,,"Petrovice,CLO",,,,-  ,,0,,Europe/Prague,0,
2:10:JDFS-21,,"Petrovice,konečná",,50.8093491,13.98137565,137,,0,,Europe/Prague,0,
2:10:JDFS-22,,"Petrovice,rozc.Krásný Les",,50.7871246,13.9788942,137,,0,,Europe/Prague,0,
2:10:JDFS-23,,"Petrovice,škola",,50.7901337333333,13.9756914666667,137,,0,,Europe/Prague,0,
2:10:JDFS-24,,"Petrovice,u dubu",,50.80432135,13.97966335,137,,0,,Europe/Prague,0,
2:10:JDFS-25,,"Petrovice,u Marvanů",,50.79598615,13.9772382,137,,0,,Europe/Prague,0,
2:10:JDFS-26,,"Petrovice,záv.",,50.79978855,13.9755664,137,,0,,Europe/Prague,0,
2:10:JDFS-27,,"Svádov,žel.st.",,50.66349025,14.1019882,101,,0,,Europe/Prague,0,
2:10:JDFS-28,,"Tisá,dětský domov",,50.78177895,14.03199435,135,,0,,Europe/Prague,0,
2:10:JDFS-29,,"Tisá,kult.dům",,50.786845,14.02582455,135,,0,,Europe/Prague,0,
2:10:JDFS-30,,"Tisá,rozc.Antonínov 0.5",,50.7826004,14.00917,135,,0,,Europe/Prague,0,
2:10:JDFS-31,,"Tisá,rozc.Sněžník 5.0",,50.7846345,14.0318499666667,135,,0,,Europe/Prague,0,
2:10:JDFS-32,,"Tisá,statek",,50.78618885,14.0155797,135,,0,,Europe/Prague,0,
2:10:JDFS-33,,"Zubrnice,Týniště",,50.6382179,14.2204542,153,,0,,Europe/Prague,0,
2:10:JDFS-34,,"Ústí n.L.,Beethovenova",,50.6728554,14.02028225,101,,0,,Europe/Prague,0,
2:10:JDFS-35,,"Ústí n.L.,Božtěšická",,50.6846528,14.01754045,101,,0,,Europe/Prague,0,
2:10:JDFS-36,,"Ústí n.L.,pod Holoměří",,50.68114475,14.01081895,101,,0,,Europe/Prague,0,
2:10:JDFS-37,,"Ústí n.L.,poliklinika",,50.6670479,14.0296693,101,,0,,Europe/Prague,0,
2:10:JDFS-38,,"Ústí n.L.,Bukov,městský stadion",,50.6757202,14.01507855,101,,0,,Europe/Prague,0,
2:10:JDFS-39,,"Ústí n.L.,Hraničář",,50.6636874666667,14.0333054666667,101,,0,,Europe/Prague,0,
2:10:JDFS-41,,"Úštěk,sídliště",,50.58825,14.34751,631,,0,,Europe/Prague,0,
2:10:JDFS-42,,"Úštěk,motel",,50.58299445,14.32769135,631,,0,,Europe/Prague,0,
2:10:JDFS-43,,"Úštěk,nám.",,50.5848478,14.3443794,631,,0,,Europe/Prague,0,
2:10:JDFS-44,,"Úštěk,žel.st.",,50.5852661,14.3353157,631,,0,,Europe/Prague,0,
2:10:JDFS-45,,"Velké Březno,Valtířov,osada",,50.66900705,14.1261377,151,,0,,Europe/Prague,0,
2:10:JDFS-46,,"Velké Březno,Valtířov,žel.st.",,50.6719615,14.12247235,151,,0,,Europe/Prague,0,
2:10:JDFS-47,,Velké Březno,,50.6642485333333,14.1425943333333,151,,0,,Europe/Prague,0,
2:10:JDFS-48,,"Velké Březno,žel.st.",,50.66458515,14.1461997,151,,0,,Europe/Prague,0,
2:10:JDFS-49,,Verneřice,,50.6612587,14.30222425,336,,0,,Europe/Prague,0,
2:10:JDFS-50,,Zubrnice,,50.6491366,14.2194017,153,,0,,Europe/Prague,0,
2:10:JDFS-51,,"Libouchec,Žďárek",,50.7222677,14.0088358,131,,0,,Europe/Prague,0,
2:10:JDFS-52,,"Ústí n.L.,Krajský soud",,50.6582162,14.04869035,101,,0,,Europe/Prague,0,
2:10:JDFS-53,,"Ústí n.L.,Mírové nám.",,50.6605984,14.04301265,101,,0,,Europe/Prague,0,
2:10:JDFS-55,,"Ústí n.L.,Olšinky",,50.65972825,14.08157175,101,,0,,Europe/Prague,0,
2:10:JDFS-56,,"Svádov,osada",,50.661742,14.0959501,101,,0,,Europe/Prague,0,
2:10:JDFS-58,,"Ústí n.L.,Božtěšice",,50.68943025,14.0184016,101,,0,,Europe/Prague,0,
2:10:JDFS-59,,"Ústí n.L.,Strážky,obec",,50.70662635,14.01565075,101,,0,,Europe/Prague,0,
2:10:JDFS-6,,"Lovečkovice,Knínice",,50.6436806,14.2382932,641,,0,,Europe/Prague,0,
2:10:JDFS-61,,"Bahratal,grenzübergang",,50.81553,13.9816608,-,,0,,Europe/Prague,0,
2:10:JDFS-62,,"Bahratal,ZOLL",,,,-  ,,0,,Europe/Prague,0,
2:10:JDFS-63,,"Ústí n.L.,Střekov,K Loděnici",,50.65847015,14.0686469,101,,0,,Europe/Prague,0,
2:10:JDFS-7,,"Lovečkovice,Knínice,rozc.",,50.63996505,14.230268,641,,0,,Europe/Prague,0,
2:10:JDFS-8,,"Libouchec,Knínice,rozc.1.0",,50.72961045,14.00994065,131,,0,,Europe/Prague,0,
2:10:JDFS-9,,Leština,,50.6586663666667,14.1994461,152,,0,,Europe/Prague,0,
2:112:JDFS-16,,"Vrutice,Svařenice",,50.50068725,14.2993355,655,,0,,Europe/Prague,0,
2:112:JDFS-18,,"Úštěk,,předměstí",,50.58101085,14.32711935,631,,0,,Europe/Prague,0,
2:112:JDFS-24,,"Liběšice,Zimoř",,50.5792446,14.31617925,635,,0,,Europe/Prague,0,
2:112:JDFS-4,,Chotiněves,,50.5513897,14.28488695,673,,0,,Europe/Prague,0,
2:112:JDFS-5,,"Chotiněves,Jištěrpy",,50.5380422,14.2879276,673,,0,,Europe/Prague,0,
2:112:JDFS-7,,Liběšice,,50.5686722,14.2894773,635,,0,,Europe/Prague,0,
2:112:JDFS-9,,"Polepy,Libínky",,50.5303955,14.2854843,671,,0,,Europe/Prague,0,
2:114:JDFS-1,,Hlinná,,50.5718346,14.1072836,603,,0,,Europe/Prague,0,
2:114:JDFS-10,,"Hlinná,Tlučeň",,50.5778351,14.0892057,603,,0,,Europe/Prague,0,
2:114:JDFS-11,,"Litoměřice,,rozc.Mentaurov",,50.562645,14.1200643,601,,0,,Europe/Prague,0,
2:114:JDFS-12,,"Hlinná,,rozc.Tlučeň 2.0",,50.56498525,14.10892245,603,,0,,Europe/Prague,0,
2:115:JDFS-25,,"Velký Šenov,,žel.st.",,,,392,,0,,Europe/Prague,0,
2:116:JDFS-10,,"Podbořany,Oploty",,50.2806358,13.4404392,932,,0,,Europe/Prague,0,
2:116:JDFS-25,,"Čeradice,Kličín",,50.29439925,13.4589186,962,,0,,Europe/Prague,0,
2:116:JDFS-26,,"Podbořany,Kaštice,žel.přejezd",,50.2604675,13.4184942,932,,0,,Europe/Prague,0,
2:116:JDFS-4,,"Podbořany,Kaštice",,50.26427,13.4274273,932,,0,,Europe/Prague,0,
2:116:JDFS-9,,"Podbořany,Neprobylice",,50.2717667,13.4437914,932,,0,,Europe/Prague,0,
2:117:JDFS-1,,"Bystřany,,žel.přejezd",,50.62759785,13.85813475,458,,0,,Europe/Prague,0,
2:117:JDFS-16,,"Ohníč,,Karola",,50.5891228,13.8453426,482,,0,,Europe/Prague,0,
2:117:JDFS-19,,"Bystřany,,škola",,50.62062235,13.8665595,458,,0,,Europe/Prague,0,
2:117:JDFS-2,,Bžany,,50.58983175,13.8781242,455,,0,,Europe/Prague,0,
2:117:JDFS-20,,"Bystřany,Úpořiny",,50.6119332666667,13.8810621666667,458,,0,,Europe/Prague,0,
2:117:JDFS-21,,"Bystřany,Úpořiny,rozc.",,50.61005,13.88358305,458,,0,,Europe/Prague,0,
2:117:JDFS-22,,"Bystřany,Úpořiny,has.zbroj.",,50.61421395,13.87993645,458,,0,,Europe/Prague,0,
2:117:JDFS-23,,"Bystřany,Úpořiny,host.",,50.61572265,13.87493755,458,,0,,Europe/Prague,0,
2:117:JDFS-24,,"Bžany,Hradiště",,50.59447785,13.8709502,455,,0,,Europe/Prague,0,
2:117:JDFS-25,,"Bžany,Hradiště,rozc.",,50.5904044,13.8697192333333,455,,0,,Europe/Prague,0,
2:117:JDFS-26,,"Bžany,Lbín",,50.6046183,13.8602387,455,,0,,Europe/Prague,0,
2:117:JDFS-27,,"Bžany,Lhenice",,50.574925,13.8653903,455,,0,,Europe/Prague,0,
2:117:JDFS-28,,"Bžany,Lysec",,50.60299335,13.86384915,455,,0,,Europe/Prague,0,
2:117:JDFS-29,,"Bžany,Mošnov",,50.58067515,13.87694835,455,,0,,Europe/Prague,0,
2:117:JDFS-3,,"Kostomlaty p.Milešovkou,,garáže",,50.5658245,13.86520335,456,,0,,Europe/Prague,0,
2:117:JDFS-34,,"Proboštov,,Přítkovská",,50.66907,13.8377142,421,,0,,Europe/Prague,0,
2:117:JDFS-41,,"Bystřany,,Domov důchodců",,50.6246116,13.86149405,458,,0,,Europe/Prague,0,
2:117:JDFS-5,,"Kostomlaty p.Milešovkou,,ObÚ",,50.5603986,13.86695325,456,,0,,Europe/Prague,0,
2:117:JDFS-6,,"Ohníč,Křemýž",,50.5975761,13.8212595,482,,0,,Europe/Prague,0,
2:117:JDFS-8,,Ohníč,,50.5872027,13.8433483333333,482,,0,,Europe/Prague,0,
2:118:JDFS-12,,"Zabrušany,,ObÚ",,50.60500525,13.7879493,493,,0,,Europe/Prague,0,
2:118:JDFS-17,,"Teplice,,Bílá cesta",,50.6289627,13.81949475,401,,0,,Europe/Prague,0,
2:118:JDFS-18,,"Teplice,,Bystřanská u přejezdu",,50.63200285,13.82319025,401,,0,,Europe/Prague,0,
2:118:JDFS-20,,"Teplice,,Novoveská",,50.6250229,13.818655,401,,0,,Europe/Prague,0,
2:118:JDFS-23,,"Teplice,,Topolová",,50.624342,13.8215184,401,,0,,Europe/Prague,0,
2:118:JDFS-26,,"Teplice,,Valy",,50.6349312,13.8274336,401,,0,,Europe/Prague,0,
2:118:JDFS-27,,"Zabrušany,,rozc.",,50.601835,13.77492235,493,,0,,Europe/Prague,0,
2:118:JDFS-28,,"Zabrušany,Straky",,50.61185,13.8063097,493,,0,,Europe/Prague,0,
2:118:JDFS-29,,"Zabrušany,Štěrbina",,50.61211,13.79884675,493,,0,,Europe/Prague,0,
2:118:JDFS-30,,"Zabrušany,Všechlapy",,50.60752105,13.7903404,493,,0,,Europe/Prague,0,
2:118:JDFS-31,,"Zabrušany,Želénky",,50.59868,13.7809515,493,,0,,Europe/Prague,0,
2:118:JDFS-32,,"Kladruby,,náves",,50.61454,13.8265972,485,,0,,Europe/Prague,0,
2:118:JDFS-5,,"Krupka,,Husitská",,50.6911659,13.8578939,431,,0,,Europe/Prague,0,
2:118:JDFS-6,,"Krupka,,muzeum",,50.68676325,13.85551895,431,,0,,Europe/Prague,0,
2:119:JDFS-15,,"Krupka,Soběchleby,host.",,50.67496105,13.8974152,431,,0,,Europe/Prague,0,
2:120:JDFS-11,,"Děčín,,Teplická",,50.77600385,14.193808,301,,0,,Europe/Prague,0,
2:120:JDFS-13,,"Děčín,,U zámečku",,50.7817271,14.15543,301,,0,,Europe/Prague,0,
2:120:JDFS-14,,"Děčín,Bynov,škola",,50.7808831,14.1467824,301,,0,,Europe/Prague,0,
2:120:JDFS-18,,"Jílové,,nám.",,50.76151305,14.10634995,311,,0,,Europe/Prague,0,
2:120:JDFS-19,,"Jílové,,papírny",,50.7638971,14.1121154,311,,0,,Europe/Prague,0,
2:120:JDFS-20,,Kámen,,50.80979345,14.2698526,344,,0,,Europe/Prague,0,
2:120:JDFS-21,,"Kámen,,rozc.",,50.8068123,14.27318095,344,,0,,Europe/Prague,0,
2:120:JDFS-22,,"Jílové,Kamenec",,50.75960315,14.0756846,311,,0,,Europe/Prague,0,
2:120:JDFS-25,,"Libouchec,,kino",,50.761205,14.0495486,131,,0,,Europe/Prague,0,
2:120:JDFS-27,,"Libouchec,,rozc.",,50.75896635,14.0681324,131,,0,,Europe/Prague,0,
2:120:JDFS-28,,"Libouchec,,u Hájků",,50.760345,14.06124465,131,,0,,Europe/Prague,0,
2:120:JDFS-29,,"Ludvíkovice,,ČSAD",,50.7873001,14.2471781,301,,0,,Europe/Prague,0,
2:120:JDFS-30,,"Ludvíkovice,,hor.ves",,50.80225755,14.2670078,347,,0,,Europe/Prague,0,
2:120:JDFS-31,,"Ludvíkovice,,pošta",,50.79418565,14.2562556,347,,0,,Europe/Prague,0,
2:120:JDFS-32,,"Ludvíkovice,,pož.zbroj.",,50.79862185,14.26402095,347,,0,,Europe/Prague,0,
2:120:JDFS-33,,"Ludvíkovice,,rozc.",,50.7916031,14.2526293,347,,0,,Europe/Prague,0,
2:120:JDFS-34,,"Jílové,Martiněves",,50.7746135,14.12722445,311,,0,,Europe/Prague,0,
2:120:JDFS-35,,"Jílové,Martiněves,rozc.",,50.7703386,14.1215138,311,,0,,Europe/Prague,0,
2:120:JDFS-36,,"Jílové,Modrá",,50.76047705,14.08165125,311,,0,,Europe/Prague,0,
2:120:JDFS-37,,"Jílové,Modrá,Lidový dům",,50.7615615,14.0933404,311,,0,,Europe/Prague,0,
2:120:JDFS-4,,Bynovec,,50.82057615,14.26398805,324,,0,,Europe/Prague,0,
2:120:JDFS-40,,"Děčín,,Prokopa Holého",,50.77396965,14.1988406,"301,301",,0,,Europe/Prague,0,
2:120:JDFS-41,,"Janov,,bytovky",,50.8594055,14.2693872,327,,0,,Europe/Prague,0,
2:120:JDFS-6,,"Děčín,,Kovočas",,50.78126145,14.17296025,301,,0,,Europe/Prague,0,
2:120:JDFS-8,,"Děčín,,Netex",,50.78302955,14.1637966,301,,0,,Europe/Prague,0,
2:120:JDFS-9,,"Děčín,,Růžek",,50.779835,14.18041565,301,,0,,Europe/Prague,0,
2:122:JDFS-1,,Lhotka n.L.,,50.52494715,14.0467634,782,,0,,Europe/Prague,0,
2:122:JDFS-10,,"Lovosice,,žel.zast.",,50.5210762,14.04555655,701,,0,,Europe/Prague,0,
2:122:JDFS-11,,Malé Žernoseky,,50.53750155,14.0553851,781,,0,,Europe/Prague,0,
2:122:JDFS-12,,"Malé Žernoseky,,Ústecká",,50.5311068,14.04937315,782,,0,,Europe/Prague,0,
2:122:JDFS-13,,Mlékojedy,,50.52663305,14.1182246,602,,0,,Europe/Prague,0,
2:122:JDFS-14,,"Mlékojedy,,u hřiště",,50.5272678,14.1254687,602,,0,,Europe/Prague,0,
2:122:JDFS-15,,"Lovosice,,Prosmyky",,50.51780325,14.0965452,701,,0,,Europe/Prague,0,
2:122:JDFS-3,,"Litoměřice,,Mlékojedská",,50.526833,14.1341195,601,,0,,Europe/Prague,0,
2:122:JDFS-9,,"Lovosice,,záv.2",,50.50995345,14.0831132,701,,0,,Europe/Prague,0,
2:123:JDFS-1,,Kamýk,,50.5583458,14.07763,613,,0,,Europe/Prague,0,
2:123:JDFS-10,,Miřejovice,,50.55414645,14.1056414,619,,0,,Europe/Prague,0,
2:123:JDFS-11,,"Miřejovice,,váha",,50.55180225,14.1110444,619,,0,,Europe/Prague,0,
2:123:JDFS-3,,"Litoměřice,,Knobloška rozc.",,50.55517315,14.09068935,613,,0,,Europe/Prague,0,
2:123:JDFS-5,,"Litoměřice,,předměstí",,50.5445872,14.11336235,601,,0,,Europe/Prague,0,
2:123:JDFS-8,,"Litoměřice,,Kamýcká",,50.53990555,14.1208229,601,,0,,Europe/Prague,0,
2:124:JDFS-2,,Evaň,,50.3835297,14.0261831,722,,0,,Europe/Prague,0,
2:124:JDFS-3,,"Evaň,Horka",,50.3833466,13.9930925,722,,0,,Europe/Prague,0,
2:124:JDFS-4,,Chodovlice,,50.4634636,13.99391125,739,,0,,Europe/Prague,0,
2:125:JDFS-1,,"Postoloprty,Březno,rozc.",,50.351532,13.7272329,811,,0,,Europe/Prague,0,
2:125:JDFS-16,,"Chožov,Mnichovský Týnec,rozc.",,50.40807,13.8571005,863,,0,,Europe/Prague,0,
2:125:JDFS-22,,"Třebívlice,,žel.st.",,50.45751,13.9081578,751,,0,,Europe/Prague,0,
2:125:JDFS-23,,"Chožov,Třtěno",,50.4215471,13.87313365,863,,0,,Europe/Prague,0,
2:125:JDFS-24,,Vršovice,,50.3679543,13.8422775,862,,0,,Europe/Prague,0,
2:125:JDFS-25,,"Vršovice,,u jezu",,50.3729668,13.8508539,862,,0,,Europe/Prague,0,
2:125:JDFS-26,,"Chožov,,samota",,50.39230725,13.8559146,863,,0,,Europe/Prague,0,
2:125:JDFS-5,,"Chožov,,u čs.kostela",,50.4016113,13.8604097,863,,0,,Europe/Prague,0,
2:125:JDFS-6,,"Chožov,,u váhy",,50.39725795,13.860652,863,,0,,Europe/Prague,0,
2:126:JDFS-1,,Brodec,,50.2935829,13.79698805,"836,9",,0,,Europe/Prague,0,
2:126:JDFS-10,,"Lišany,,rozvodna",,50.13504435,13.731348275,"7,896",,0,,Europe/Prague,0,
2:126:JDFS-13,,"Líšťany,,Hrabačov",,50.31008,13.8003321,"825,8",,0,,Europe/Prague,0,
2:126:JDFS-18,,Mutějovice,,50.2172356,13.7045288,"8,895",,0,,Europe/Prague,0,
2:126:JDFS-19,,"Mutějovice,,Na Příči",,50.1965212,13.7096313,"8,895,8,895",,0,,Europe/Prague,0,
2:126:JDFS-2,,"Ročov,Břínkov",,50.2771149,13.7890444,"834,8",,0,,Europe/Prague,0,
2:126:JDFS-20,,"Rakovník,,aut.st.",,50.1007314285714,13.7338318142857,"7,891",,0,,Europe/Prague,0,
2:126:JDFS-21,,"Rakovník,,Čs.legií",,50.1042976,13.725430675,"7,891",,0,,Europe/Prague,0,
2:126:JDFS-22,,"Rakovník,,rozc.Cikánka",,50.119481525,13.732758675,"7,891",,0,,Europe/Prague,0,
2:126:JDFS-23,,Ročov,,50.25231024,13.77281304,"834,8,834,8",,0,,Europe/Prague,0,
2:126:JDFS-24,,"Ročov,,Třebocká",,50.250111,13.768297425,"834,8",,0,,Europe/Prague,0,
2:126:JDFS-26,,"Domoušice,Solopysky",,50.2594223,13.74619,"831,9",,0,,Europe/Prague,0,
2:126:JDFS-27,,Třeboc,,50.21502558,13.75113508,"7,835",,0,,Europe/Prague,0,
2:126:JDFS-28,,"Třeboc,,Džbán",,50.204613375,13.74712815,"7,835",,0,,Europe/Prague,0,
2:126:JDFS-29,,"Ročov,Úlovice",,50.2646942,13.7925434,"834,8",,0,,Europe/Prague,0,
2:126:JDFS-30,,"Třeboc,,obchod",,50.21295105,13.7544005,"7,835",,0,,Europe/Prague,0,
2:126:JDFS-31,,"Rakovník,,žel.zast.západ",,50.1019821,13.7146127,"7,891",,0,,Europe/Prague,0,
2:126:JDFS-32,,"Rakovník,,Prokopova",,50.1010788666667,13.7270365,"7,891",,0,,Europe/Prague,0,
2:126:JDFS-33,,"Rakovník,,Na Sekyře",,50.10283885,13.729665975,"7,891",,0,,Europe/Prague,0,
2:126:JDFS-34,,"Rakovník,,sídl.gen.Kholla",,50.1021656666667,13.7212657666667,"7,891",,0,,Europe/Prague,0,
2:3:JDFS-7,,Koštov,,50.63458365,13.991507775,101,,0,,Europe/Prague,0,
2:126:JDFS-35,,"Rakovník,,V Jamce",,50.10666125,13.729838625,"7,891",,0,,Europe/Prague,0,
2:126:JDFS-37,,"Rakovník,,Lišanská",,50.10950175,13.73411395,"7,891",,0,,Europe/Prague,0,
2:126:JDFS-5,,Hředle,,50.188024,13.7476668,"8,895",,0,,Europe/Prague,0,
2:126:JDFS-6,,"Hředle,,pod Džbánem",,50.1935749,13.746228675,"8,895",,0,,Europe/Prague,0,
2:126:JDFS-7,,"Krupá,,Šustna",,50.17224464,13.74029313,"7,896,7,896",,0,,Europe/Prague,0,
2:126:JDFS-8,,"Lišany,,u ovčína",,50.1404250666667,13.7351662,"7,896",,0,,Europe/Prague,0,
2:126:JDFS-9,,"Lišany,,u rybníka",,50.14784025,13.7418964,"7,896",,0,,Europe/Prague,0,
2:127:JDFS-18,,"Údlice,,učiliště",,50.4405648,13.4573647,501,,0,,Europe/Prague,0,
2:127:JDFS-21,,"Chomutov,,Dukelská I",,50.456412925,13.42852595,501,,0,,Europe/Prague,0,
2:127:JDFS-22,,"Chomutov,,Dukelská II",,50.456412925,13.42852595,501,,0,,Europe/Prague,0,
2:129:JDFS-11,,"Lukov,Štěpánov",,50.5285645,13.8719282,474,,0,,Europe/Prague,0,
2:129:JDFS-12,,"Hrobčice,Červený Újezd,rozc.",,50.4941290666667,13.8419514,477,,0,,Europe/Prague,0,
2:129:JDFS-15,,"Hrobčice,Červený Újezd,Ke Mlýnu",,50.4919319,13.84296,"477,477",,0,,Europe/Prague,0,
2:129:JDFS-2,,"Bílina,,nám.",,50.5487938,13.7748652,461,,0,,Europe/Prague,0,
2:129:JDFS-5,,"Hrobčice,Červený Újezd",,50.4941290666667,13.8419514,477,,0,,Europe/Prague,0,
2:129:JDFS-8,,Lukov,,50.52828,13.8852606,474,,0,,Europe/Prague,0,
2:129:JDFS-9,,"Hrobčice,Mukov",,50.504015,13.837441,"477,477",,0,,Europe/Prague,0,
2:12:JDFS-1,,Brozany n.Ohří,,50.4543037,14.1463079,766,,0,,Europe/Prague,0,
2:12:JDFS-10,,"Roudnice n.L.,Podlusky,Chvalínská",,50.4220222,14.2249155,661,,0,,Europe/Prague,0,
2:12:JDFS-12,,Přestavlky,,50.40567,14.1945667,772,,0,,Europe/Prague,0,
2:12:JDFS-13,,"Brozany n.Ohří,,křiž.",,50.4585133333333,14.1369133333333,766,,0,,Europe/Prague,0,
2:12:JDFS-17,,"Roudnice n.L.,,Tyršův stadion",,50.423076,14.2515693,661,,0,,Europe/Prague,0,
2:12:JDFS-18,,"Vědomice,,plavecký bazén",,50.431778,14.2603941,664,,0,,Europe/Prague,0,
2:12:JDFS-2,,Černěves,,50.45465,14.2432156,665,,0,,Europe/Prague,0,
2:12:JDFS-21,,"Roudnice n.L.,,žel.st.",,50.4264,14.2623091,661,,0,,Europe/Prague,0,
2:12:JDFS-22,,Vědomice,,50.43342,14.2538528,664,,0,,Europe/Prague,0,
2:12:JDFS-23,,"Vědomice,Zavadilka",,50.44124,14.2615643,664,,0,,Europe/Prague,0,
2:12:JDFS-24,,"Budyně n.Ohří,,Pražská",,50.4045639,14.1297436,771,,0,,Europe/Prague,0,
2:12:JDFS-26,,"Vědomice,Zavadilka,Na Průhonu",,50.4416821,14.26114035,664,,0,,Europe/Prague,0,
2:12:JDFS-3,,"Doksany,,škola",,50.451795,14.16760395,765,,0,,Europe/Prague,0,
2:12:JDFS-4,,"Doksany,,zámek",,50.45529175,14.16124955,765,,0,,Europe/Prague,0,
2:12:JDFS-5,,Dušníky,,50.4226551,14.19285915,773,,0,,Europe/Prague,0,
2:12:JDFS-6,,"Dušníky,,cesta",,50.4268112,14.2082601,773,,0,,Europe/Prague,0,
2:12:JDFS-7,,"Nové Dvory,Chvalín",,50.43531835,14.196563075,774,,0,,Europe/Prague,0,
2:12:JDFS-8,,"Budyně n.Ohří,Nížebohy",,50.412659325,14.178678025,771,,0,,Europe/Prague,0,
2:12:JDFS-9,,Nové Dvory,,50.44697,14.1807337,774,,0,,Europe/Prague,0,
2:132:JDFS-10,,"Klášterec n.Ohří,,škola",,50.38638305,13.18013955,541,,0,,Europe/Prague,0,
2:132:JDFS-11,,"Klášterec n.Ohří,Miřetice,aut.nádr.",,50.38728,13.1926508,541,,0,,Europe/Prague,0,
2:132:JDFS-13,,"Mikulovice,,statek",,50.3821754,13.2436342,541,,0,,Europe/Prague,0,
2:132:JDFS-17,,"Prunéřov,,EPRU I",,50.41092,13.24939,532,,0,,Europe/Prague,0,
2:132:JDFS-23,,"Rašovice,,čerp.",,50.3850174,13.2172565,541,,0,,Europe/Prague,0,
2:132:JDFS-24,,Vernéřov,,50.3998756,13.2270823,541,,0,,Europe/Prague,0,
2:132:JDFS-26,,"Klášterec n.Ohří,,IP Verne I",,50.40399,13.2322111,541,,0,,Europe/Prague,0,
2:132:JDFS-27,,"Klášterec n.Ohří,,IP Verne II",,50.40399,13.2322111,541,,0,,Europe/Prague,0,
2:132:JDFS-28,,"Kadaň,,Královský Vrch",,50.39390375,13.2551718,531,,0,,Europe/Prague,0,
2:132:JDFS-32,,"Klášterec n.Ohří,,IP Verne III",,50.40399,13.2322111,541,,0,,Europe/Prague,0,
2:132:JDFS-5,,"Kadaň,,Jungmanova",,50.3780022,13.26645705,531,,0,,Europe/Prague,0,
2:132:JDFS-6,,"Kadaň,,Kpt.Jaroše u kina",,50.38318825,13.2708683,531,,0,,Europe/Prague,0,
2:132:JDFS-7,,"Kadaň,,nemocnice poliklinika",,50.39098275,13.27121115,531,,0,,Europe/Prague,0,
2:132:JDFS-8,,"Klášterec n.Ohří,,nám.",,,,541,,0,,Europe/Prague,0,
2:132:JDFS-9,,"Klášterec n.Ohří,,porcelánka",,50.38289265,13.1999344,541,,0,,Europe/Prague,0,
2:134:JDFS-1,,"Petrovice,Krásný Les",,50.7680168,13.9353151,125,,0,,Europe/Prague,0,
2:134:JDFS-3,,"Petrovice,,rozc.Krásný Les",,,,137,,0,,Europe/Prague,0,
2:135:JDFS-19,,Janov,,50.5876045,13.5642748,221,,0,,Europe/Prague,0,
2:135:JDFS-23,,"Hora Sv.Kateřiny,rozc.Malý Háj",,50.5968056,13.4420271,253,,0,,Europe/Prague,0,
2:138:JDFS-1,,"Březno,,důl",,50.3965,13.4158468,585,,0,,Europe/Prague,0,
2:138:JDFS-13,,"Kadaň,,KOH-I-NOOR",,50.37914795,13.2830377,531,,0,,Europe/Prague,0,
2:138:JDFS-16,,"Tušimice,,důl Merkur",,50.389164,13.3311272,533,,0,,Europe/Prague,0,
2:138:JDFS-17,,"Tušimice,,I.ELNA",,50.3835678,13.33263255,533,,0,,Europe/Prague,0,
2:138:JDFS-18,,"Tušimice,,II.ELNA",,50.3835678,13.33263255,533,,0,,Europe/Prague,0,
2:138:JDFS-19,,"Tušimice,,II.stavba",,50.379364,13.3411722,533,,0,,Europe/Prague,0,
2:138:JDFS-20,,"Tušimice,,Sempra",,50.37539,13.3233471,"533,533",,0,,Europe/Prague,0,
2:138:JDFS-6,,"Chomutov,,Moravská",,50.4682579,13.40979005,501,,0,,Europe/Prague,0,
2:13:JDFS-1,,"Dobříň,,rozc.",,50.4343827,14.30458545,681,,0,,Europe/Prague,0,
2:13:JDFS-10,,"Tuhaň,Pavličky",,50.544626,14.49230865,632,,0,,Europe/Prague,0,
2:13:JDFS-13,,"Bechlín,Předonín",,50.4376602,14.3326793,682,,0,,Europe/Prague,0,
2:13:JDFS-14,,Račice,,50.46072195,14.3519373,"657,657",,0,,Europe/Prague,0,
2:13:JDFS-15,,"Štětí,Radouň",,50.479791775,14.396626225,653,,0,,Europe/Prague,0,
2:13:JDFS-17,,"Roudnice n.L.,,Bezděkov škola",,50.4262352,14.2780762,661,,0,,Europe/Prague,0,
2:13:JDFS-18,,"Roudnice n.L.,,Chelčického",,50.42747115,14.2835684,661,,0,,Europe/Prague,0,
2:13:JDFS-2,,"Dubá,,aut.nádr.",,50.54132845,14.54045915,633,,0,,Europe/Prague,0,
2:13:JDFS-20,,"Roudnice n.L.,,Masný průmysl",,50.43025015,14.29185065,661,,0,,Europe/Prague,0,
2:13:JDFS-21,,"Roudnice n.L.,,zámecký park",,50.42394,14.2654486,661,,0,,Europe/Prague,0,
2:13:JDFS-25,,Snědovice,,50.5039673,14.3878345,652,,0,,Europe/Prague,0,
2:13:JDFS-26,,"Snědovice,Střížovice",,50.5173187,14.38384155,652,,0,,Europe/Prague,0,
2:13:JDFS-27,,"Snědovice,Sukorady",,50.5305886,14.4306502,634,,0,,Europe/Prague,0,
2:13:JDFS-28,,"Štětí,,Cihelná",,50.45566185,14.37047145,651,,0,,Europe/Prague,0,
2:13:JDFS-29,,"Štětí,,prádelna",,50.45676615,14.38300535,651,,0,,Europe/Prague,0,
2:13:JDFS-3,,"Tuhaň,,rozcestí Mošnice",,50.53034405,14.45555925,632,,0,,Europe/Prague,0,
2:13:JDFS-30,,"Štětí,,záv.",,50.460511225,14.3676057,651,,0,,Europe/Prague,0,
2:13:JDFS-31,,"Štětí,,žel.přejezd",,50.4589881,14.391119,651,,0,,Europe/Prague,0,
2:13:JDFS-32,,Tuhaň,,50.5367335,14.46702005,632,,0,,Europe/Prague,0,
2:13:JDFS-33,,"Úštěk,Vědlice,rozc.",,,,634,,0,,Europe/Prague,0,
2:13:JDFS-34,,"Snědovice,Velký Hubenov",,50.52808575,14.39929195,634,,0,,Europe/Prague,0,
2:13:JDFS-35,,Záluží,,50.45759722,14.32463494,684,,0,,Europe/Prague,0,
2:13:JDFS-36,,"Tuhaň,Pavličky,rozc.Zátyní",,50.5469513,14.5027604,632,,0,,Europe/Prague,0,
2:13:JDFS-37,,Dobříň,,50.4374324833333,14.2952079333333,681,,0,,Europe/Prague,0,
2:13:JDFS-38,,"Bechlín,Předonín,košíkárna",,50.4378948,14.3186865,682,,0,,Europe/Prague,0,
2:13:JDFS-39,,"Štětí,,centrum",,50.454093125,14.37730385,651,,0,,Europe/Prague,0,
2:13:JDFS-41,,"Račice,,Labe aréna",,50.45972,14.3462334,657,,0,,Europe/Prague,0,
2:13:JDFS-42,,"Štětí,,Boženy Němcové",,50.457,14.3739061,651,,0,,Europe/Prague,0,
2:13:JDFS-6,,"Štětí,Hněvice,Benzina rozc.",,50.44072,14.345808,682,,0,,Europe/Prague,0,
2:13:JDFS-7,,"Štětí,Hněvice,předmostí",,50.4554253,14.3617229,651,,0,,Europe/Prague,0,
2:13:JDFS-8,,"Záluží,Kozlovice,rozc.",,50.454607,14.31462235,684,,0,,Europe/Prague,0,
2:13:JDFS-9,,"Snědovice,Křešov",,50.49156,14.39628,652,,0,,Europe/Prague,0,
2:143:JDFS-10,,"Veliká Ves,,rozc.1.0",,50.2698361,13.3889637,565,,0,,Europe/Prague,0,
2:143:JDFS-12,,"Krásný Dvůr,Zlovědice,rozc.",,50.26359175,13.39022825,933,,0,,Europe/Prague,0,
2:147:JDFS-1,,Český Jiřetín,,50.7071457,13.5424728,261,,0,,Europe/Prague,0,
2:147:JDFS-10,,"Klíny,,rozc.Mníšek",,50.63830855,13.55144355,262,,0,,Europe/Prague,0,
2:147:JDFS-11,,"Klíny,,Šumenské údolí",,50.66246135,13.54509305,262,,0,,Europe/Prague,0,
2:147:JDFS-15,,"Litvínov,Písečná",,50.6071379,13.58299685,221,,0,,Europe/Prague,0,
2:147:JDFS-16,,"Klíny,Rašov",,50.61934605,13.57933695,262,,0,,Europe/Prague,0,
2:147:JDFS-17,,"Klíny,Sedlo",,50.62279225,13.5699854,262,,0,,Europe/Prague,0,
2:147:JDFS-19,,"Český Jiřetín,Fláje,přehrada",,50.68718215,13.5792451,261,,0,,Europe/Prague,0,
2:147:JDFS-2,,"Český Jiřetín,,pož.zbroj.",,50.7077135,13.54740665,261,,0,,Europe/Prague,0,
2:147:JDFS-3,,"Český Jiřetín,,u pily",,50.7032922,13.55569695,261,,0,,Europe/Prague,0,
2:147:JDFS-4,,"Český Jiřetín,Fláje",,50.68877,13.5850029,261,,0,,Europe/Prague,0,
2:147:JDFS-5,,"Český Jiřetín,Fláje,zámeček rozc.",,50.6729928,13.56790495,261,,0,,Europe/Prague,0,
2:147:JDFS-6,,"Litvínov,Horní Ves",,50.6116986,13.5746503,221,,0,,Europe/Prague,0,
2:147:JDFS-7,,"Klíny,,host.",,50.63011205,13.5604081,262,,0,,Europe/Prague,0,
2:147:JDFS-8,,"Klíny,,Obora",,50.6436081,13.541914,262,,0,,Europe/Prague,0,
2:147:JDFS-9,,"Klíny,,ObÚ",,50.6355064,13.55691145,262,,0,,Europe/Prague,0,
2:149:JDFS-9,,Hoštka,,50.48672,14.3355742,654,,0,,Europe/Prague,0,
2:14:JDFS-1,,"Blšany,,nám.",,50.2176351666667,13.4713700333333,937,,0,,Europe/Prague,0,
2:14:JDFS-10,,"Podbořany,,aut.nádr. Dělnická",,50.2228731,13.407954675,931,,0,,Europe/Prague,0,
2:14:JDFS-2,,"Blšany,Malá Černoc",,50.2070868,13.54881,935,,0,,Europe/Prague,0,
2:14:JDFS-3,,Očihov,,50.19827895,13.4612968,936,,0,,Europe/Prague,0,
2:14:JDFS-4,,"Podbořany,,nem.",,50.2273903,13.4153371,931,,0,,Europe/Prague,0,
2:14:JDFS-5,,"Blšany,Soběchleby",,50.21525355,13.5161195,935,,0,,Europe/Prague,0,
2:14:JDFS-6,,"Blšany,Stachov",,50.2191022,13.49351835,937,,0,,Europe/Prague,0,
2:14:JDFS-7,,"Měcholupy,Velká Černoc",,50.20242,13.5857935,924,,0,,Europe/Prague,0,
2:14:JDFS-8,,"Podbořany,,nám.",,50.2282143,13.4086647,931,,0,,Europe/Prague,0,
2:14:JDFS-9,,"Podbořany,,Nádražní",,50.2255249,13.4065351,931,,0,,Europe/Prague,0,
2:150:JDFS-16,,"Novosedlice,,hřbitov",,50.6575851,13.8182621,421,,0,,Europe/Prague,0,
2:150:JDFS-23,,"Dubí,Pozorka",,50.662893425,13.798852325,421,,0,,Europe/Prague,0,
2:150:JDFS-24,,"Dubí,Pozorka,Novosedlická",,50.6588063,13.8063345,421,,0,,Europe/Prague,0,
2:150:JDFS-25,,"Dubí,Pozorka,závod",,50.65926555,13.8096303,421,,0,,Europe/Prague,0,
2:150:JDFS-8,,"Dubí,Bystřice,gymnázium",,50.6656786,13.80261895,421,,0,,Europe/Prague,0,
2:150:JDFS-9,,"Dubí,Bystřice,škola",,50.66860275,13.80635735,421,,0,,Europe/Prague,0,
2:151:JDFS-1,,"Duchcov,,koupaliště",,50.61432,13.7346849,411,,0,,Europe/Prague,0,
2:151:JDFS-25,,"Krupka,Soběchleby",,50.67341785,13.8957796,431,,0,,Europe/Prague,0,
2:151:JDFS-27,,"Krupka,Soběchleby,točna",,50.6731,13.8925285,431,,0,,Europe/Prague,0,
2:151:JDFS-4,,"Duchcov,,Teplická",,50.6068306,13.74777935,411,,0,,Europe/Prague,0,
2:151:JDFS-5,,"Duchcov,,žel.st.",,50.61733815,13.7536893,411,,0,,Europe/Prague,0,
2:151:JDFS-9,,Lahošť,,50.6214161,13.7579198,491,,0,,Europe/Prague,0,
2:154:JDFS-1,,Deštnice,,50.2276730666667,13.6073691333333,923,,0,,Europe/Prague,0,
2:154:JDFS-10,,"Měcholupy,,žel.přejezd",,50.25379,13.5638742,921,,0,,Europe/Prague,0,
2:154:JDFS-11,,"Holedeč,Stránky,rozc.",,50.29265975,13.56870125,922,,0,,Europe/Prague,0,
2:154:JDFS-12,,"Holedeč,Veletice",,50.2969971,13.5759573,922,,0,,Europe/Prague,0,
2:154:JDFS-15,,"Žatec,,Sv.Čecha",,50.32104825,13.54350565,901,,0,,Europe/Prague,0,
2:154:JDFS-16,,"Žatec,,teplárna Perč",,50.3038044,13.5503858,901,,0,,Europe/Prague,0,
2:154:JDFS-19,,"Měcholupy,Želeč",,50.2382774,13.55813,921,,0,,Europe/Prague,0,
2:154:JDFS-2,,"Deštnice,,rozc.1.0",,50.2347177,13.5886154,923,,0,,Europe/Prague,0,
2:154:JDFS-20,,"Měcholupy,Želeč,rozc.",,50.25792,13.5544043,921,,0,,Europe/Prague,0,
2:154:JDFS-3,,Holedeč,,50.27817,13.56115175,922,,0,,Europe/Prague,0,
2:154:JDFS-4,,"Holedeč,Holedeček",,50.28338964,13.56006792,"922,922",,0,,Europe/Prague,0,
2:154:JDFS-6,,"Měcholupy,,škola",,50.2703281,13.53883815,921,,0,,Europe/Prague,0,
2:154:JDFS-7,,"Měcholupy,Milošice",,50.28363,13.5281487,921,,0,,Europe/Prague,0,
2:154:JDFS-8,,"Deštnice,,Nová Hospoda rozc.",,50.21716845,13.58819035,924,,0,,Europe/Prague,0,
2:154:JDFS-9,,"Deštnice,,rozc.Sádek",,50.2437954,13.5767331,922,,0,,Europe/Prague,0,
2:155:JDFS-23,,"Bohušovice n.Ohří,,záv.",,50.49128,14.149888,"763,8",,0,,Europe/Prague,0,
2:156:JDFS-25,,Skršín,,50.46296,13.7463226,246,,0,,Europe/Prague,0,
2:157:JDFS-1,,"Dolní Podluží,,drůbežárna",,50.8796534,14.6070852,366,,0,,Europe/Prague,0,
2:157:JDFS-10,,"Jiřetín p.Jedlovou,,nám.",,50.8752441,14.574049,365,,0,,Europe/Prague,0,
2:157:JDFS-15,,"Varnsdorf,,Horská",,50.90426365,14.6197839,371,,0,,Europe/Prague,0,
2:157:JDFS-17,,"Varnsdorf,,jatky",,50.891813225,14.62291815,371,,0,,Europe/Prague,0,
2:157:JDFS-18,,"Varnsdorf,,Karla IV.",,50.89896585,14.61922835,371,,0,,Europe/Prague,0,
2:157:JDFS-2,,"Dolní Podluží,,kino",,50.88148115,14.5806651,366,,0,,Europe/Prague,0,
2:157:JDFS-24,,"Chřibská,Horní Chřibská",,50.8577769,14.4892478,361,,0,,Europe/Prague,0,
2:157:JDFS-25,,"Chřibská,Horní Chřibská,sklárna",,50.85818195,14.50122975,361,,0,,Europe/Prague,0,
2:157:JDFS-26,,"Chřibská,Krásné Pole",,50.84872,14.5048523,361,,0,,Europe/Prague,0,
2:157:JDFS-28,,"Varnsdorf,,Bratislavská",,50.9105644,14.64034,371,,0,,Europe/Prague,0,
2:157:JDFS-29,,"Varnsdorf,,Vasped",,50.9080849,14.6488285,371,,0,,Europe/Prague,0,
2:157:JDFS-3,,"Dolní Podluží,,křiž.",,50.875590975,14.584053775,"366,366",,0,,Europe/Prague,0,
2:157:JDFS-30,,"Varnsdorf,,Žitavská",,50.9080238,14.6424723,371,,0,,Europe/Prague,0,
2:157:JDFS-32,,"Horní Podluží,,dolní",,50.8831463,14.56845715,364,,0,,Europe/Prague,0,
2:157:JDFS-4,,"Dolní Podluží,,škola",,50.8797722,14.59526015,366,,0,,Europe/Prague,0,
2:157:JDFS-5,,"Dolní Podluží,,Velveta 06",,50.8815975,14.61738065,366,,0,,Europe/Prague,0,
2:157:JDFS-6,,"Dolní Podluží,,žel.st.",,50.88676595,14.6197057,366,,0,,Europe/Prague,0,
2:157:JDFS-9,,"Chřibská,,škola",,50.8611431,14.48106765,361,,0,,Europe/Prague,0,
2:158:JDFS-10,,"Ústí n.L.,,Bělehradská",,50.6711089,14.0342436,101,,0,,Europe/Prague,0,
2:158:JDFS-11,,"Ústí n.L.,,Hilarova",,50.66668665,14.03648805,101,,0,,Europe/Prague,0,
2:158:JDFS-12,,"Ústí n.L.,,Na kopečku",,50.68474245,14.03991985,101,,0,,Europe/Prague,0,
2:158:JDFS-14,,"Ústí n.L.,,Elba",,50.67833835,14.0360198,101,,0,,Europe/Prague,0,
2:158:JDFS-17,,"Ústí n.L.,Kočkov",,50.68132015,14.0374365,101,,0,,Europe/Prague,0,
2:158:JDFS-18,,"Chuderov,Žežice",,50.6866531,14.0710011,101,,0,,Europe/Prague,0,
2:158:JDFS-2,,"Chabařovice,,záv.",,50.66376175,13.92966175,123,,0,,Europe/Prague,0,
2:158:JDFS-27,,"Srbice,,Staré Srbice",,50.6476974,13.8782959,401,,0,,Europe/Prague,0,
2:158:JDFS-28,,"Chabařovice,Roudníky,dílny",,50.66479,13.91793155,123,,0,,Europe/Prague,0,
2:158:JDFS-29,,"Chabařovice,Roudníky,Marie Antonie",,50.65526195,13.9149804,123,,0,,Europe/Prague,0,
2:158:JDFS-30,,"Chabařovice,Roudníky",,50.65141865,13.9191823,123,,0,,Europe/Prague,0,
2:158:JDFS-4,,Chuderov,,50.688795,14.0465851,101,,0,,Europe/Prague,0,
2:158:JDFS-5,,"Chuderov,,ObÚ",,50.68731895,14.04449365,101,,0,,Europe/Prague,0,
2:158:JDFS-6,,"Chuderov,,Vlachovka",,50.6924629333333,14.0452397333333,"101,101",,0,,Europe/Prague,0,
2:158:JDFS-7,,"Chuderov,Chuderovec",,50.69982715,14.04135465,101,,0,,Europe/Prague,0,
2:158:JDFS-8,,Modlany,,50.6520589,13.8960193,433,,0,,Europe/Prague,0,
2:158:JDFS-9,,"Modlany,,nám.",,50.650692,13.8964024,433,,0,,Europe/Prague,0,
2:15:JDFS-9,,Ledčice,,50.34116,14.2943249,699,,0,,Europe/Prague,0,
2:160:JDFS-26,,"Teplice,Hudcov",,50.62776,13.7824039,401,,0,,Europe/Prague,0,
2:160:JDFS-27,,"Teplice,Hudcov,Výšina",,50.634765,13.7791009,401,,0,,Europe/Prague,0,
2:162:JDFS-17,,"Lukavec,,prodejna",,50.50105785,14.0873308,769,,0,,Europe/Prague,0,
2:162:JDFS-18,,"Terezín,Nové Kopisty",,50.5033025,14.1210871,763,,0,,Europe/Prague,0,
2:162:JDFS-2,,"Třebívlice,Dřemčice",,50.4743156,13.9112186,751,,0,,Europe/Prague,0,
2:162:JDFS-6,,Keblice,,50.48349765,14.106555,768,,0,,Europe/Prague,0,
2:162:JDFS-7,,"Keblice,,cihelna",,50.48939325,14.098235,768,,0,,Europe/Prague,0,
2:162:JDFS-8,,"Libčeves,Lahovice,rozc.",,50.4581146,13.85116385,851,,0,,Europe/Prague,0,
2:163:JDFS-1,,"Lubenec,Drahonice",,50.1475906,13.33673335,953,,0,,Europe/Prague,0,
2:163:JDFS-11,,"Podbořany,Pšov",,50.25381,13.4580021,932,,0,,Europe/Prague,0,
2:163:JDFS-13,,"Podbořany,Sýrovice",,50.2611237,13.4663105,932,,0,,Europe/Prague,0,
2:163:JDFS-14,,"Vroutek,Vidhostice",,50.1560974,13.3721857,942,,0,,Europe/Prague,0,
2:163:JDFS-16,,"Vroutek,,Karlovarská",,50.17704,13.3766766,941,,0,,Europe/Prague,0,
2:163:JDFS-17,,"Vroutek,,závod",,50.1731377,13.3768215,941,,0,,Europe/Prague,0,
2:163:JDFS-2,,"Lubenec,Ležky",,50.12427,13.3554029,953,,0,,Europe/Prague,0,
2:163:JDFS-23,,"Lubenec,,Podbořanská",,50.1325951,13.3146505,953,,0,,Europe/Prague,0,
2:163:JDFS-24,,"Lubenec,,Pražská",,50.13227,13.3159018,953,,0,,Europe/Prague,0,
2:163:JDFS-28,,"Lubenec,,u dálnice",,50.136326,13.32023145,953,,0,,Europe/Prague,0,
2:163:JDFS-3,,"Lubenec,Libyně",,50.14518,13.31491525,953,,0,,Europe/Prague,0,
2:163:JDFS-4,,"Lubenec,,Jelení",,50.12599,13.3350639,953,,0,,Europe/Prague,0,
2:163:JDFS-5,,"Lubenec,,závod",,50.13036355,13.32413685,953,,0,,Europe/Prague,0,
2:163:JDFS-6,,"Vroutek,Lužec",,50.1580544,13.3497677,942,,0,,Europe/Prague,0,
2:163:JDFS-7,,"Podbořany,,kafilerie",,50.2396126,13.4214563,931,,0,,Europe/Prague,0,
2:163:JDFS-9,,"Podbořany,,ČSAD",,50.21663,13.3952847,931,,0,,Europe/Prague,0,
2:164:JDFS-1,,Blatno,,50.50967,13.3600016,522,,0,,Europe/Prague,0,
2:164:JDFS-10,,Načetín,,50.57435,13.2914276,523,,0,,Europe/Prague,0,
2:164:JDFS-11,,"Načetín,,odb.",,50.56589,13.32376,523,,0,,Europe/Prague,0,
2:164:JDFS-12,,Radenov,,50.5263824,13.36142,522,,0,,Europe/Prague,0,
2:164:JDFS-13,,Zákoutí,,50.5427647,13.34685805,522,,0,,Europe/Prague,0,
2:164:JDFS-16,,"Chomutov,,Kostnická",,50.4674335,13.39984895,501,,0,,Europe/Prague,0,
2:164:JDFS-17,,"Chomutov,,Kostnická škola",,50.47086295,13.4032731,501,,0,,Europe/Prague,0,
2:164:JDFS-2,,"Blatno,,Nový dům rozc.",,50.54530405,13.3338132,522,,0,,Europe/Prague,0,
2:164:JDFS-3,,"Blatno,,suška",,50.504549,13.3656277,522,,0,,Europe/Prague,0,
2:164:JDFS-4,,"Hradečná,,rozc.1.0",,50.4967429,13.3739681,522,,0,,Europe/Prague,0,
2:164:JDFS-6,,"Chomutov,,Zátiší",,50.4752577,13.4019666,501,,0,,Europe/Prague,0,
2:164:JDFS-7,,Kalek,,50.57806775,13.31539345,523,,0,,Europe/Prague,0,
2:164:JDFS-8,,"Květnov,,rozc.1.0",,50.5226059,13.3623209,522,,0,,Europe/Prague,0,
2:164:JDFS-9,,Mezihoří,,50.53608705,13.3604679,522,,0,,Europe/Prague,0,
2:165:JDFS-10,,"Klášterec n.Ohří,Petlerská,II",,50.3931526,13.1829536,541,,0,,Europe/Prague,0,
2:165:JDFS-13,,Měděnec,,50.4225922,13.1159887,553,,0,,Europe/Prague,0,
2:165:JDFS-14,,"Měděnec,rozc.k dolu",,50.4214675,13.11206865,553,,0,,Europe/Prague,0,
2:165:JDFS-17,,Petlery,,50.41341,13.16064,542,,0,,Europe/Prague,0,
2:165:JDFS-24,,"Klášterec n.Ohří,žel.st.",,50.38552735,13.19628285,541,,0,,Europe/Prague,0,
2:165:JDFS-9,,"Klášterec n.Ohří,Petlerská,I",,50.3931526,13.1829536,541,,0,,Europe/Prague,0,
2:167:JDFS-10,,"Děčín,Maxičky",,50.8114777,14.1827965,301,,0,,Europe/Prague,0,
2:167:JDFS-11,,"Jílové,Sněžník,celnice",,50.8075917,14.0843854,320,,0,,Europe/Prague,0,
2:167:JDFS-12,,"Jílové,Sněžník,lesní správa",,50.79735375,14.08321425,320,,0,,Europe/Prague,0,
2:167:JDFS-13,,"Jílové,Sněžník",,50.78543,14.0875568,320,,0,,Europe/Prague,0,
2:167:JDFS-14,,"Jílové,Sněžník,rest.Hraničář",,50.791675,14.0873461,320,,0,,Europe/Prague,0,
2:167:JDFS-3,,"Děčín,,Marešova školka",,50.8052184,14.10329485,301,,0,,Europe/Prague,0,
2:167:JDFS-4,,"Děčín,,Tyršův most",,50.7802,14.2060785,301,,0,,Europe/Prague,0,
2:167:JDFS-5,,"Děčín,,U mostu",,50.7819,14.20669,301,,0,,Europe/Prague,0,
2:167:JDFS-6,,"Děčín,,Zotavovna",,50.8071021,14.1795206,301,,0,,Europe/Prague,0,
2:167:JDFS-7,,"Děčín,Jalůvčí,rozc.",,50.7896805,14.1905451,301,,0,,Europe/Prague,0,
2:167:JDFS-8,,"Děčín,Přípeř",,50.7858965,14.20595815,301,,0,,Europe/Prague,0,
2:167:JDFS-9,,"Děčín,Kristin Hrádek,rozc.",,50.80861,14.1263504,301,,0,,Europe/Prague,0,
2:168:JDFS-22,,"Ústí n.L.,,Masarykova nem.",,50.680341,14.02320675,101,,0,,Europe/Prague,0,
2:168:JDFS-25,,"Ústí n.L.,,Sociální péče",,50.6776886,14.02814865,101,,0,,Europe/Prague,0,
2:168:JDFS-26,,"Ústí n.L.,,odb.Neznabohy",,50.6967773,14.0184059,101,,0,,Europe/Prague,0,
2:168:JDFS-28,,"Jílové,,sídliště",,50.7657661,14.1107168,311,,0,,Europe/Prague,0,
2:16:JDFS-1,,"Benešov n.Pl.,,Bedřichov záv.",,50.729496,14.3163564,331,,0,,Europe/Prague,0,
2:16:JDFS-10,,"Děčín,Březiny,hor.",,50.7606975,14.2583261,301,,0,,Europe/Prague,0,
2:16:JDFS-13,,"Františkov n.Pl.,,Ostrý",,50.72408105,14.32491265,332,,0,,Europe/Prague,0,
2:16:JDFS-14,,"Františkov n.Pl.,,pila",,50.7198849,14.3372531,332,,0,,Europe/Prague,0,
2:16:JDFS-15,,"Františkov n.Pl.,,Valkeřické rozc.",,50.71912,14.3487344,332,,0,,Europe/Prague,0,
2:16:JDFS-16,,"Františkov n.Pl.,,záv.",,50.72487,14.32973005,332,,0,,Europe/Prague,0,
2:16:JDFS-17,,"Malá Veleň,Jedlka,rozc.",,50.74345385,14.2777023,339,,0,,Europe/Prague,0,
2:16:JDFS-18,,"Malá Veleň,Jedlka,záv.",,50.74101635,14.2810421,339,,0,,Europe/Prague,0,
2:16:JDFS-19,,"Verneřice,Příbram,dol.",,50.66974675,14.2668514,336,,0,,Europe/Prague,0,
2:16:JDFS-2,,"Benešov n.Pl.,,nám.",,50.7415022333333,14.3112119,331,,0,,Europe/Prague,0,
2:16:JDFS-20,,"Verneřice,Příbram,rozc.",,50.6704437,14.25457145,336,,0,,Europe/Prague,0,
2:16:JDFS-21,,"Verneřice,Rychnov",,50.68698,14.2634125,336,,0,,Europe/Prague,0,
2:16:JDFS-22,,"Malá Veleň,Soutěsky",,50.751145,14.26077415,339,,0,,Europe/Prague,0,
2:16:JDFS-23,,"Valkeřice,,hřiště",,50.7078228,14.3297682,337,,0,,Europe/Prague,0,
2:16:JDFS-24,,"Valkeřice,,pošta",,50.70352135,14.3229761,337,,0,,Europe/Prague,0,
2:16:JDFS-25,,"Valkeřice,,u Benešů",,50.71310285,14.34402275,337,,0,,Europe/Prague,0,
2:16:JDFS-26,,"Valkeřice,,u kostela",,50.6974232,14.3187437,337,,0,,Europe/Prague,0,
2:16:JDFS-27,,"Valkeřice,,u Macháčků",,50.7087084,14.3387432,337,,0,,Europe/Prague,0,
2:16:JDFS-28,,"Valkeřice,,u Sedláčků",,50.69238405,14.3152299,337,,0,,Europe/Prague,0,
2:16:JDFS-3,,"Benešov n.Pl.,,rozc.Heřmanov",,50.7335455,14.310028325,331,,0,,Europe/Prague,0,
2:16:JDFS-30,,"Verneřice,,statek",,50.664823,14.2856417,336,,0,,Europe/Prague,0,
2:16:JDFS-31,,"Verneřice,,rozc.",,50.6815718,14.31078185,337,,0,,Europe/Prague,0,
2:16:JDFS-32,,"Verneřice,,sušička",,50.66337175,14.29303595,336,,0,,Europe/Prague,0,
2:16:JDFS-34,,"Verneřice,Čáslav,rozc.",,50.667525,14.27627325,336,,0,,Europe/Prague,0,
2:16:JDFS-4,,"Benešov n.Pl.,,u čerp.st.",,50.7413864,14.2944064,331,,0,,Europe/Prague,0,
2:16:JDFS-5,,"Benešov n.Pl.,,záv.I",,50.74102105,14.30151035,331,,0,,Europe/Prague,0,
2:173:JDFS-1,,"Velké Chvojno,Arnultovice",,50.714489,14.0463047,136,,0,,Europe/Prague,0,
2:173:JDFS-10,,"Chuderov,Libov",,50.70574,14.07232855,133,,0,,Europe/Prague,0,
2:173:JDFS-11,,"Chuderov,Lipová",,50.7167263,14.0879655,133,,0,,Europe/Prague,0,
2:173:JDFS-12,,"Velké Chvojno,Luční Chvojno",,50.7231561,14.0546489,136,,0,,Europe/Prague,0,
2:173:JDFS-13,,"Velké Chvojno,Malé Chvojno",,50.7405865,14.0279365,136,,0,,Europe/Prague,0,
2:173:JDFS-15,,Malečov,,50.6314201,14.12017105,161,,0,,Europe/Prague,0,
2:173:JDFS-16,,"Malečov,,odb.",,50.6425114,14.09665295,101,,0,,Europe/Prague,0,
2:173:JDFS-17,,"Velké Chvojno,Mnichov",,50.72254375,14.0771155,136,,0,,Europe/Prague,0,
2:173:JDFS-18,,"Malečov,Pohoří,rozc.0.5",,50.62669655,14.13067245,161,,0,,Europe/Prague,0,
2:173:JDFS-19,,"Malečov,Proboštov,host.",,50.62546275,14.15083685,162,,0,,Europe/Prague,0,
2:173:JDFS-2,,"Chuderov,Lipová,rozc.Blansko 1.5",,50.7114079,14.084322,133,,0,,Europe/Prague,0,
2:173:JDFS-20,,"Malečov,Proboštov,odb.Lhota pod Pannou",,50.62485505,14.15616655,162,,0,,Europe/Prague,0,
2:173:JDFS-21,,"Chuderov,Radešín",,50.70230865,14.0692296,101,,0,,Europe/Prague,0,
2:173:JDFS-23,,"Malečov,Rýdeč,odb.Lhota pod Pannou",,50.61389545,14.166646,162,,0,,Europe/Prague,0,
2:173:JDFS-24,,"Chuderov,Sovolusky,rozc.0.5",,50.69424645,14.06882815,101,,0,,Europe/Prague,0,
2:173:JDFS-25,,Tašov,,50.6145753,14.13431715,162,,0,,Europe/Prague,0,
2:173:JDFS-26,,"Tašov,,ovčárna",,50.607921875,14.146843375,"162,162",,0,,Europe/Prague,0,
2:173:JDFS-3,,"Malečov,Březí,rozc.0.3",,50.64412845,14.112092,161,,0,,Europe/Prague,0,
2:173:JDFS-34,,"Ústí n.L.,,Kamenný vrch",,50.6541233,14.06637765,101,,0,,Europe/Prague,0,
2:173:JDFS-35,,"Ústí n.L.,,Kamenný vrch škola",,50.65729905,14.06200315,101,,0,,Europe/Prague,0,
2:173:JDFS-36,,Velké Chvojno,,50.7324829,14.0369158,136,,0,,Europe/Prague,0,
2:173:JDFS-37,,"Velké Chvojno,,škola",,50.7298661,14.03538705,136,,0,,Europe/Prague,0,
2:173:JDFS-38,,"Velké Chvojno,Žďár",,50.72874,14.0226774,136,,0,,Europe/Prague,0,
2:173:JDFS-39,,"Velké Chvojno,Žďár,rozc.0.5",,50.72788045,14.03297185,136,,0,,Europe/Prague,0,
2:173:JDFS-4,,"Malečov,Čeřeniště",,50.60060205,14.1214521,162,,0,,Europe/Prague,0,
2:173:JDFS-43,,"Ústí n.L.,,Malátova",,,,101,,0,,Europe/Prague,0,
2:173:JDFS-7,,"Ústí n.L.,Kojetice",,50.64535245,14.0875645,101,,0,,Europe/Prague,0,
2:177:JDFS-16,,"Teplice,Řetenice,Sklářská",,50.6398831,13.800869,401,,0,,Europe/Prague,0,
2:177:JDFS-17,,"Újezdeček,,Dukla rozc.",,50.6470937,13.77651405,401,,0,,Europe/Prague,0,
2:177:JDFS-18,,"Újezdeček,,nám.",,50.64537115,13.7893281,401,,0,,Europe/Prague,0,
2:177:JDFS-22,,"Ústí n.L.,,Bukov rondel",,50.6806,14.0069828,101,,0,,Europe/Prague,0,
2:177:JDFS-25,,"Jeníkov,Oldřichov",,50.63662082,13.75479872,492,,0,,Europe/Prague,0,
2:177:JDFS-26,,"Jeníkov,Oldřichov,ObÚ",,50.63662082,13.75479872,492,,0,,Europe/Prague,0,
2:177:JDFS-27,,"Jeníkov,Oldřichov,rozc.žel.st.",,50.64168,13.76076365,492,,0,,Europe/Prague,0,
2:177:JDFS-32,,"Teplice,,Křižíkova",,50.6414612,13.8164158,401,,0,,Europe/Prague,0,
2:177:JDFS-33,,"Teplice,,Libušina",,50.6380178,13.80902625,401,,0,,Europe/Prague,0,
2:177:JDFS-37,,"Ústí n.L.,Bukov,sanat.",,50.68209265,14.02040385,101,,0,,Europe/Prague,0,
2:177:JDFS-39,,"Ústí n.L.,Severní Terasa",,50.68014315,14.02571695,101,,0,,Europe/Prague,0,
2:177:JDFS-7,,"Jeníkov,,nám.",,50.6288738,13.7492933,492,,0,,Europe/Prague,0,
2:178:JDFS-13,,Tuchořice,,50.2849464,13.6629848,845,,0,,Europe/Prague,0,
2:178:JDFS-14,,"Tuchořice,,samota",,50.29199,13.6449718,845,,0,,Europe/Prague,0,
2:178:JDFS-15,,"Tuchořice,,škola",,50.2869034,13.6573553,845,,0,,Europe/Prague,0,
2:178:JDFS-16,,"Jimlín,Zeměchy",,50.3277727,13.74914215,841,,0,,Europe/Prague,0,
2:178:JDFS-2,,"Lipno,Drahomyšl",,50.3093262,13.6442537,846,,0,,Europe/Prague,0,
2:178:JDFS-21,,"Louny,,Osvoboditelů",,50.3555603,13.8033223,801,,0,,Europe/Prague,0,
2:178:JDFS-22,,"Louny,,Zahradní město",,50.35394,13.8157983,801,,0,,Europe/Prague,0,
2:178:JDFS-3,,"Liběšice,Dubčany",,50.296605,13.633121,844,,0,,Europe/Prague,0,
2:178:JDFS-4,,Liběšice,,50.29493,13.6219454,844,,0,,Europe/Prague,0,
2:178:JDFS-5,,"Lipno,Lipenec",,50.31536,13.7044573,846,,0,,Europe/Prague,0,
2:178:JDFS-6,,Lipno,,50.2984962,13.6788969,846,,0,,Europe/Prague,0,
2:178:JDFS-9,,"Louny,,Riegrova",,50.35632515,13.82018995,801,,0,,Europe/Prague,0,
2:179:JDFS-14,,"Výsluní,Kýšovice",,50.4727135,13.255084,527,,0,,Europe/Prague,0,
2:179:JDFS-15,,"Výsluní,Volyně,rozc.",,50.4518547,13.178319,558,,0,,Europe/Prague,0,
2:179:JDFS-20,,"Chomutov,,Kadaňská kaplička",,50.4590759,13.3962631,501,,0,,Europe/Prague,0,
2:179:JDFS-23,,"Místo,Blahuňov",,50.4466667,13.2926836,526,,0,,Europe/Prague,0,
2:179:JDFS-24,,"Místo,Vysoká Jedle",,50.4552,13.2634983,526,,0,,Europe/Prague,0,
2:179:JDFS-26,,"Výsluní,Třebíška,rozc.",,50.4638824,13.2322845,527,,0,,Europe/Prague,0,
2:179:JDFS-27,,"Místo,,výchovný ústav",,50.4479179,13.2629118,526,,0,,Europe/Prague,0,
2:179:JDFS-4,,"Chomutov,,Kadaňská škola",,50.46190645,13.40029195,501,,0,,Europe/Prague,0,
2:179:JDFS-9,,Místo,,50.44702,13.26713,526,,0,,Europe/Prague,0,
2:17:JDFS-1,,"Dolní Poustevna,,střed",,50.98227,14.2882996,397,,0,,Europe/Prague,0,
2:17:JDFS-3,,"Lobendava,,rybník",,51.00876235,14.29843135,396,,0,,Europe/Prague,0,
2:17:JDFS-4,,"Dolní Poustevna,Horní Poustevna",,50.99818765,14.2923573,397,,0,,Europe/Prague,0,
2:17:JDFS-5,,"Dolní Poustevna,Markéta,odb.",,51.0023763,14.2963953,397,,0,,Europe/Prague,0,
2:17:JDFS-6,,"Dolní Poustevna,,žel.st.",,50.98318,14.2837858,397,,0,,Europe/Prague,0,
2:184:JDFS-10,,"Opočno,,host.",,50.3116035,13.7350092,822,,0,,Europe/Prague,0,
2:184:JDFS-11,,"Opočno,,žel.přejezd",,50.31203,13.7332516,822,,0,,Europe/Prague,0,
2:184:JDFS-12,,"Hřivice,Touchovice",,50.3031075,13.73114195,821,,0,,Europe/Prague,0,
2:184:JDFS-15,,"Tuchořice,,háj.",,50.2807541,13.673625,845,,0,,Europe/Prague,0,
2:184:JDFS-16,,"Lipno,Drahomyšl,kaplička",,50.3091545,13.64408,846,,0,,Europe/Prague,0,
2:184:JDFS-3,,"Hřivice,,Nová ulice",,50.2911186,13.73221875,821,,0,,Europe/Prague,0,
2:184:JDFS-4,,"Hřivice,,žel.st.",,50.2866325,13.726511,821,,0,,Europe/Prague,0,
2:184:JDFS-5,,Jimlín,,50.3183174,13.7466822,841,,0,,Europe/Prague,0,
2:184:JDFS-8,,"Lipno,Lipenec,škola",,50.3152771,13.7047462,846,,0,,Europe/Prague,0,
2:184:JDFS-9,,"Hřivice,Markvarec",,50.2773662,13.6951909,821,,0,,Europe/Prague,0,
2:185:JDFS-10,,"Krásná Lípa,nádraží",,50.91571,14.513577,386,,0,,Europe/Prague,0,
2:185:JDFS-26,,"Krásná Lípa,žel.zast.město",,50.9068794,14.511786,386,,0,,Europe/Prague,0,
2:185:JDFS-8,,"Krásná Lípa,Pražská",,50.90159305,14.5119066,386,,0,,Europe/Prague,0,
2:186:JDFS-21,,"Děčín,Loubí,I",,50.802597,14.2388878,301,,0,,Europe/Prague,0,
2:186:JDFS-33,,"Krásná Lípa,Kyjov,Kyjovské údolí",,50.9143658,14.46287775,386,,0,,Europe/Prague,0,
2:186:JDFS-34,,"Krásná Lípa,Kyjov,přehrada",,50.90879745,14.46232655,386,,0,,Europe/Prague,0,
2:186:JDFS-35,,"Krásná Lípa,Kyjov,Dlouhý Důl",,50.9175892,14.46787785,386,,0,,Europe/Prague,0,
2:18:JDFS-1,,"Brandov,u kostela",,50.6319515,13.3911762,254,,0,,Europe/Prague,0,
2:18:JDFS-10,,"Hora Sv.Kateřiny,Pachenkov",,50.59664,13.44832945,253,,0,,Europe/Prague,0,
2:18:JDFS-11,,"Hora Sv.Kateřiny,u hraničního přechodu",,50.610239,13.42808775,253,,0,,Europe/Prague,0,
2:18:JDFS-12,,"Hora Sv.Kateřiny,nám.",,50.60611735,13.43733165,253,,0,,Europe/Prague,0,
2:18:JDFS-13,,"Hora Sv.Kateřiny,SÚS",,50.60277555,13.4343033,253,,0,,Europe/Prague,0,
2:18:JDFS-14,,"Hora Sv.Kateřiny,pož.zbroj.",,50.60520895,13.44150495,"253,253",,0,,Europe/Prague,0,
2:18:JDFS-15,,"Hora Sv.Kateřiny,předávací stanice",,50.601216,13.4516525,"253,253",,0,,Europe/Prague,0,
2:18:JDFS-16,,"Hora Sv.Kateřiny,Dolní",,50.606298,13.43143895,253,,0,,Europe/Prague,0,
2:18:JDFS-17,,"Horní Jiřetín,rozc.0.2",,50.584128775,13.53666615,221,,0,,Europe/Prague,0,
2:18:JDFS-18,,"Horní Jiřetín,Triola",,50.58646,13.53403075,221,,0,,Europe/Prague,0,
2:18:JDFS-19,,Janov,,50.5873871,13.5641832,221,,0,,Europe/Prague,0,
2:18:JDFS-2,,"Brandov,u hřiště",,50.6409664,13.3812617,254,,0,,Europe/Prague,0,
2:18:JDFS-20,,"Litvínov,nádraží",,50.5938198166667,13.6110411333333,221,,0,,Europe/Prague,0,
2:18:JDFS-21,,"Litvínov,nám.Míru",,50.5989484,13.60985565,221,,0,,Europe/Prague,0,
2:18:JDFS-22,,"Litvínov,Krušnohor",,50.6008913,13.6025896,221,,0,,Europe/Prague,0,
2:18:JDFS-23,,"Hora Sv.Kateřiny,rozc.Malý Háj",,50.5969429,13.4418793,253,,0,,Europe/Prague,0,
2:18:JDFS-24,,"Nová Ves v Horách,Mikulovice",,50.5905266,13.5018568,252,,0,,Europe/Prague,0,
2:18:JDFS-25,,Nová Ves v Horách,,50.592613675,13.487050525,252,,0,,Europe/Prague,0,
2:18:JDFS-26,,"Nová Ves v Horách,hranice",,50.60102,13.4640837,252,,0,,Europe/Prague,0,
2:18:JDFS-27,,"Nová Ves v Horách,ObÚ",,50.592613675,13.487050525,"252,252",,0,,Europe/Prague,0,
2:18:JDFS-28,,"Nová Ves v Horách,Mikulovice,u domku",,50.5876503,13.4980445,252,,0,,Europe/Prague,0,
2:18:JDFS-29,,"Nová Ves v Horách,u hřbitova",,50.59839,13.47628405,"252,252",,0,,Europe/Prague,0,
2:18:JDFS-3,,"Brandov,CLO",,,,x,,0,,Europe/Prague,0,
2:18:JDFS-30,,"Nová Ves v Horách,u rybníčku",,50.5994339,13.47047375,"252,252",,0,,Europe/Prague,0,
2:18:JDFS-31,,"Litvínov,Máj věž.domy",,50.60310715,13.60848375,221,,0,,Europe/Prague,0,
2:18:JDFS-32,,"Nová Ves v Horách,křiž.",,50.59126665,13.48800085,252,,0,,Europe/Prague,0,
2:18:JDFS-33,,"Olbernhau,Grünthal,Bahnhof",,50.6505623,13.3657913,0,,0,,Europe/Prague,0,
2:18:JDFS-34,,"Nová Ves v Horách,Mikulovice,rozc.",,50.5900841,13.4847813,252,,0,,Europe/Prague,0,
2:18:JDFS-35,,"Brandov,Na Čáře",,50.64977645,13.37258625,254,,0,,Europe/Prague,0,
2:18:JDFS-36,,"Olbernhau,ZOLL",,,,0,,0,,Europe/Prague,0,
2:18:JDFS-37,,"Olbernhau,Krankenhaus",,50.65548,13.3478212,0,,0,,Europe/Prague,0,
2:18:JDFS-38,,"Olbernhau,Busbahnhof",,50.6575241,13.3383188,0,,0,,Europe/Prague,0,
2:18:JDFS-39,,"Olbernhau,Bahnhof",,50.6570244,13.3363361,0,,0,,Europe/Prague,0,
2:18:JDFS-4,,Brandov,,50.6273174,13.39394665,254,,0,,Europe/Prague,0,
2:18:JDFS-40,,"Olbernhau,Grünthal,Löser",,50.6523132,13.3525991,0,,0,,Europe/Prague,0,
2:18:JDFS-5,,"Brandov,odb.Kolonie",,50.63876645,13.38372425,254,,0,,Europe/Prague,0,
2:18:JDFS-6,,"Hora Sv.Kateřiny,Na Pile",,50.61712225,13.4123044,253,,0,,Europe/Prague,0,
2:18:JDFS-7,,"Brandov,ObÚ",,50.6341516,13.3884215,254,,0,,Europe/Prague,0,
2:18:JDFS-8,,Hamr,,50.592535,13.57432795,221,,0,,Europe/Prague,0,
2:18:JDFS-9,,"Hamr,škola",,50.594862,13.5850568,221,,0,,Europe/Prague,0,
2:190:JDFS-16,,"Polepy,,stará škola",,50.503582,14.2520752,671,,0,,Europe/Prague,0,
2:190:JDFS-23,,"Štětí,,zdymadla",,50.474325,14.3590041,651,,0,,Europe/Prague,0,
2:190:JDFS-29,,"Křešice,,Kolonie",,50.5175819,14.2268782,672,,0,,Europe/Prague,0,
2:190:JDFS-3,,Hoštka,,50.48681,14.3341894,654,,0,,Europe/Prague,0,
2:190:JDFS-7,,"Křešice,,školka",,50.52116395,14.2196618,672,,0,,Europe/Prague,0,
2:195:JDFS-11,,"Varnsdorf,5.května",,50.91461945,14.6111336,,,0,,Europe/Prague,0,
2:195:JDFS-12,,"Varnsdorf,Východní škola",,50.91553725,14.62641905,,,0,,Europe/Prague,0,
2:195:JDFS-13,,"Varnsdorf,policie",,50.9187851,14.6197362,,,0,,Europe/Prague,0,
2:195:JDFS-14,,"Varnsdorf,staré nádraží",,50.9097052333333,14.6128308,,,0,,Europe/Prague,0,
2:195:JDFS-2,,"Varnsdorf,Bezručova",,50.92039,14.616538,,,0,,Europe/Prague,0,
2:195:JDFS-3,,"Varnsdorf,Budyšínská",,50.91995,14.6230469,,,0,,Europe/Prague,0,
2:195:JDFS-5,,"Varnsdorf,Kamenická",,50.9164238,14.6135244,,,0,,Europe/Prague,0,
2:195:JDFS-7,,"Varnsdorf,nem.",,50.89477,14.6125355,,,0,,Europe/Prague,0,
2:195:JDFS-9,,"Varnsdorf,pošta",,50.91029,14.6269855,,,0,,Europe/Prague,0,
2:196:JDFS-21,,"Žatec,,Koito",,50.34773,13.546916,901,,0,,Europe/Prague,0,
2:196:JDFS-5,,"Velemyšleves,Minice",,50.3904572,13.5739784,912,,0,,Europe/Prague,0,
2:196:JDFS-6,,"Velemyšleves,Minice,samota",,50.3865776,13.5694246,912,,0,,Europe/Prague,0,
2:196:JDFS-9,,"Velemyšleves,Truzenice",,50.39498,13.5728092,912,,0,,Europe/Prague,0,
2:197:JDFS-13,,"Děčín,Loubí,I",,50.81038,14.2318525,301,,0,,Europe/Prague,0,
2:197:JDFS-18,,"Děčín,Loubí,IV",,50.81038,14.2318525,301,,0,,Europe/Prague,0,
2:199:JDFS-14,,"Postoloprty,Skupice",,50.33614,13.6982536,842,,0,,Europe/Prague,0,
2:199:JDFS-15,,"Postoloprty,Strkovice",,50.325737,13.6498394,842,,0,,Europe/Prague,0,
2:199:JDFS-16,,"Lišany,,ObÚ",,50.3440933,13.6414013,814,,0,,Europe/Prague,0,
2:199:JDFS-2,,"Postoloprty,Hradiště",,50.3325176,13.63789035,842,,0,,Europe/Prague,0,
2:199:JDFS-6,,"Postoloprty,Malnice",,50.3345833,13.71575,842,,0,,Europe/Prague,0,
2:199:JDFS-7,,"Postoloprty,Mradice",,50.33065,13.6780233,842,,0,,Europe/Prague,0,
2:199:JDFS-8,,"Postoloprty,Mradice,mlýn",,50.33065,13.6780233,842,,0,,Europe/Prague,0,
2:19:JDFS-1,,"Bechlín,,ObÚ",,50.4164592666667,14.3409465,682,,0,,Europe/Prague,0,
2:19:JDFS-10,,Libkovice p.Řípem,,50.39178085,14.3403741,683,,0,,Europe/Prague,0,
2:19:JDFS-11,,Libotenice,,50.47663495,14.23012735,669,,0,,Europe/Prague,0,
2:19:JDFS-12,,"Libotenice,,drůbežárna",,50.46954735,14.2308383,669,,0,,Europe/Prague,0,
2:19:JDFS-13,,"Libotenice,,hřbitov",,50.48007865,14.22801305,669,,0,,Europe/Prague,0,
2:19:JDFS-14,,"Litoměřice,,aut.nádr.",,50.5331626333333,14.1404325916667,601,,0,,Europe/Prague,0,
2:19:JDFS-15,,"Travčice,Nučničky",,50.50697825,14.21864745,767,,0,,Europe/Prague,0,
2:19:JDFS-16,,Oleško,,50.478212725,14.1943238,"660,660",,0,,Europe/Prague,0,
2:19:JDFS-17,,"Terezín,Počaply",,50.518515,14.19661475,763,,0,,Europe/Prague,0,
2:19:JDFS-18,,"Terezín,Počaply,cesta",,50.5102749,14.1924593,763,,0,,Europe/Prague,0,
2:19:JDFS-2,,"Bechlín,,u Čtvrtečků",,50.42015455,14.3394151,682,,0,,Europe/Prague,0,
2:19:JDFS-20,,"Bechlín,Předonín,vinice",,50.42935755,14.33770895,682,,0,,Europe/Prague,0,
2:19:JDFS-21,,"Hrobce,Rohatce",,50.4604449,14.2039305333333,"663,663",,0,,Europe/Prague,0,
2:19:JDFS-26,,"Roudnice n.L.,,ČSAD",,50.42730365,14.244528475,661,,0,,Europe/Prague,0,
2:19:JDFS-27,,"Roudnice n.L.,,Glazura",,50.4323510666667,14.2897153333333,661,,0,,Europe/Prague,0,
2:19:JDFS-3,,"Terezín,České Kopisty",,50.52314835,14.16661835,763,,0,,Europe/Prague,0,
2:19:JDFS-33,,"Terezín,,aut.nádr.",,50.5110891,14.1491841,763,,0,,Europe/Prague,0,
2:19:JDFS-34,,"Terezín,,U Památníku",,50.51259,14.1574554,763,,0,,Europe/Prague,0,
2:19:JDFS-35,,"Terezín,,křiž.",,50.5137879666667,14.1391395,763,,0,,Europe/Prague,0,
2:19:JDFS-36,,"Terezín,,škola",,50.5068737,14.14217715,763,,0,,Europe/Prague,0,
2:19:JDFS-37,,Travčice,,50.50449305,14.18710755,767,,0,,Europe/Prague,0,
2:19:JDFS-38,,Židovice,,50.444015,14.23258165,662,,0,,Europe/Prague,0,
2:19:JDFS-41,,"Litoměřice,,obchodní centrum",,50.5256653,14.1376972,601,,0,,Europe/Prague,0,
2:19:JDFS-42,,"Libkovice p.Řípem,,Nad roklí",,50.3950521,14.34563495,683,,0,,Europe/Prague,0,
2:19:JDFS-7,,Hrobce,,50.4610882,14.2298412,663,,0,,Europe/Prague,0,
2:19:JDFS-8,,"Hrobce,,žel.st.",,50.4623976,14.2268968,663,,0,,Europe/Prague,0,
2:19:JDFS-9,,Kostomlaty p.Řípem,,50.38163698,14.33182012,697,,0,,Europe/Prague,0,
2:1:JDFS-1,,"Žiželice,Stroupeč",,50.356617,13.4978456,911,,0,,Europe/Prague,0,
2:1:JDFS-10,,"Žatec,,Chmelařství",,50.3366699,13.54135425,901,,0,,Europe/Prague,0,
2:1:JDFS-11,,"Žatec,,žel.st.západ",,50.33771895,13.5346599,901,,0,,Europe/Prague,0,
2:1:JDFS-12,,"Žatec,,Kovářská",,50.3242149,13.54163,901,,0,,Europe/Prague,0,
2:1:JDFS-2,,"Žatec,Záhoří",,50.3467865,13.5163069,901,,0,,Europe/Prague,0,
2:1:JDFS-3,,"Žatec,Záhoří,rozc.",,50.342435,13.5239749,901,,0,,Europe/Prague,0,
2:1:JDFS-4,,"Žatec,,aut.nádr.",,50.32762628,13.546834,901,,0,,Europe/Prague,0,
2:1:JDFS-5,,"Žatec,,Havlíčkovo nám.",,50.3306847,13.53896045,901,,0,,Europe/Prague,0,
2:1:JDFS-6,,"Žatec,,Lučanská",,50.32436285,13.5332246,901,,0,,Europe/Prague,0,
2:1:JDFS-7,,"Žatec,,sokolovna",,50.3234978,13.5420389,901,,0,,Europe/Prague,0,
2:1:JDFS-8,,"Žatec,,U výtopny",,50.3392327,13.5275016,901,,0,,Europe/Prague,0,
2:1:JDFS-9,,"Žatec,,Bonex",,50.33465255,13.5424074,901,,0,,Europe/Prague,0,
2:200:JDFS-1,,"Velemín,Bílinka",,50.5210882,14.00516275,742,,0,,Europe/Prague,0,
2:200:JDFS-10,,"Chotiměř,,školka",,50.5481164,13.9922154,744,,0,,Europe/Prague,0,
2:200:JDFS-17,,"Velemín,Opárno",,50.53566155,14.00626085,742,,0,,Europe/Prague,0,
2:200:JDFS-18,,"Velemín,Režný Újezd",,50.51781895,13.9958396,742,,0,,Europe/Prague,0,
2:200:JDFS-19,,"Třebenice,Sutom",,50.5043831,13.9738941,742,,0,,Europe/Prague,0,
2:200:JDFS-3,,"Velemín,Bílý Újezd",,50.5478,13.97713425,741,,0,,Europe/Prague,0,
2:200:JDFS-4,,"Velemín,Boreč",,50.510335,13.9902658,742,,0,,Europe/Prague,0,
2:200:JDFS-7,,"Velemín,Dobkovičky",,50.5560824666667,14.0030244,741,,0,,Europe/Prague,0,
2:200:JDFS-8,,"Velemín,Hrušovka,rozc.",,50.5519986,13.9853473,744,,0,,Europe/Prague,0,
2:200:JDFS-9,,Chotiměř,,50.5471878,13.9891739,744,,0,,Europe/Prague,0,
2:203:JDFS-1,,"Štětí,Čakovice",,50.48792225,14.3743348,653,,0,,Europe/Prague,0,
2:203:JDFS-10,,"Úštěk,Ostré",,50.58429265,14.3736658,631,,0,,Europe/Prague,0,
2:203:JDFS-12,,"Úštěk,Rašovice",,50.57043835,14.40183115,634,,0,,Europe/Prague,0,
2:203:JDFS-13,,"Úštěk,Robeč,dol.",,50.5405846,14.4222565,634,,0,,Europe/Prague,0,
2:203:JDFS-14,,"Úštěk,Robeč,hor.",,50.5431023,14.4211435,634,,0,,Europe/Prague,0,
2:203:JDFS-16,,"Snědovice,Strachaly",,50.5132942,14.4248123,652,,0,,Europe/Prague,0,
2:203:JDFS-19,,"Snědovice,Sukorady,rozc.",,50.53028,14.4258318,634,,0,,Europe/Prague,0,
2:203:JDFS-25,,"Hoštka,Velešice",,50.48925595,14.3602467,654,,0,,Europe/Prague,0,
2:203:JDFS-27,,"Hoštka,,Velešická",,50.48791,14.33966875,654,,0,,Europe/Prague,0,
2:203:JDFS-5,,"Úštěk,Kalovice",,50.5586052,14.4038067,634,,0,,Europe/Prague,0,
2:203:JDFS-6,,"Úštěk,,Krásná Studánka",,50.57323,14.4091358,634,,0,,Europe/Prague,0,
2:203:JDFS-7,,"Blíževedly,Skalka,rozc.",,50.5859423333333,14.4084685666667,634,,0,,Europe/Prague,0,
2:203:JDFS-9,,"Snědovice,,Lomy",,50.5095062,14.4150143,"652,652",,0,,Europe/Prague,0,
2:206:JDFS-1,,Bitozeves,,50.3729829333333,13.6405754333333,812,,0,,Europe/Prague,0,
2:73:JDFS-7,,Radechov,,50.28621485,13.2698378,591,,0,,Europe/Prague,0,
2:206:JDFS-15,,"Žatec,,Osvoboditelů",,50.337995,13.5479542,901,,0,,Europe/Prague,0,
2:206:JDFS-2,,"Bitozeves,,škola",,50.3751039,13.64603805,812,,0,,Europe/Prague,0,
2:206:JDFS-3,,Blažim,,50.407753,13.6284137,816,,0,,Europe/Prague,0,
2:206:JDFS-7,,"Bitozeves,Vidovle",,50.3894844,13.64772415,812,,0,,Europe/Prague,0,
2:206:JDFS-8,,Výškov,,50.3942,13.6729631,815,,0,,Europe/Prague,0,
2:206:JDFS-9,,"Výškov,,záv.",,50.393177,13.6909409,815,,0,,Europe/Prague,0,
2:207:JDFS-14,,"Dubí,,čerpací stanice",,50.67108,13.7930212,421,,0,,Europe/Prague,0,
2:207:JDFS-16,,"Dubí,,Rudolfova huť",,50.666732,13.79441355,421,,0,,Europe/Prague,0,
2:207:JDFS-17,,"Dubí,,Ruská",,50.6748352,13.7913,421,,0,,Europe/Prague,0,
2:207:JDFS-29,,"Dubí,Pozorka,supermarket",,50.6599808,13.8011761,421,,0,,Europe/Prague,0,
2:208:JDFS-12,,"Jirkov,,Vinařická I",,50.5028057,13.4388418,511,,0,,Europe/Prague,0,
2:208:JDFS-15,,"Komořany,,KSK",,50.5310898,13.5624994,211,,0,,Europe/Prague,0,
2:208:JDFS-16,,"Komořany,,Obránců míru",,50.5349846,13.5507545,211,,0,,Europe/Prague,0,
2:208:JDFS-17,,"Komořany,,tábor 7",,50.52819,13.5689473,211,,0,,Europe/Prague,0,
2:208:JDFS-18,,"Komořany,,DUK",,50.5220146,13.5746555,211,,0,,Europe/Prague,0,
2:208:JDFS-23,,"Vysoká Pec,,rozc.1.0",,50.5130576,13.4690461,573,,0,,Europe/Prague,0,
2:208:JDFS-25,,"Most,,Pod Resslem",,50.5120163,13.6235209,201,,0,,Europe/Prague,0,
2:208:JDFS-26,,"Třebušice,,MUS-DTS Vrbenský",,50.52387395,13.5843091,211,,0,,Europe/Prague,0,
2:208:JDFS-28,,"Jirkov,,Horník",,50.5007576,13.4382367,511,,0,,Europe/Prague,0,
2:208:JDFS-29,,"Jirkov,,Hornická",,50.50330355,13.441875,511,,0,,Europe/Prague,0,
2:208:JDFS-3,,"Ervěnice,,záv.ČSA",,50.5235138,13.54312,211,,0,,Europe/Prague,0,
2:208:JDFS-30,,"Most,,Nemocnice",,50.50874,13.6270056,201,,0,,Europe/Prague,0,
2:209:JDFS-1,,Domašín,,50.42157,13.1728878,545,,0,,Europe/Prague,0,
2:209:JDFS-10,,Louchov,,50.4260864,13.1912613,545,,0,,Europe/Prague,0,
2:209:JDFS-11,,"Louchov,,rozc.2.0",,50.422348,13.2129679,541,,0,,Europe/Prague,0,
2:209:JDFS-13,,Pokutice,,50.3719444,13.24915,531,,0,,Europe/Prague,0,
2:209:JDFS-14,,Rašovice,,50.37359,13.2037363,541,,0,,Europe/Prague,0,
2:209:JDFS-15,,Suchý Důl,,50.3739281,13.2206535,541,,0,,Europe/Prague,0,
2:209:JDFS-16,,Zásada u Rašovic,,50.3718948,13.2288237,531,,0,,Europe/Prague,0,
2:209:JDFS-9,,Lestkov,,50.3645172,13.190464,541,,0,,Europe/Prague,0,
2:20:JDFS-1,,"Krupka,,rozc.",,50.665139175,13.880096225,"431,431",,0,,Europe/Prague,0,
2:20:JDFS-10,,"Dubí,Mstišov,Školní",,50.66655745,13.7773209,421,,0,,Europe/Prague,0,
2:20:JDFS-11,,"Dubí,Pozorka,nám.",,50.6610375,13.79337915,421,,0,,Europe/Prague,0,
2:20:JDFS-12,,"Dubí,Pozorka,sklárna",,50.659406675,13.801682975,421,,0,,Europe/Prague,0,
2:20:JDFS-13,,"Krupka,Bohosudov,Dlouhá",,50.67897655,13.87722205,431,,0,,Europe/Prague,0,
2:20:JDFS-14,,"Krupka,Bohosudov,MěÚ",,50.6823158,13.8722563,431,,0,,Europe/Prague,0,
2:20:JDFS-15,,"Krupka,Bohosudov,žel.přejezd",,50.671395,13.87511295,431,,0,,Europe/Prague,0,
2:20:JDFS-18,,"Krupka,Vrchoslav,točna",,50.6825371,13.8404064,431,,0,,Europe/Prague,0,
2:20:JDFS-19,,"Teplice,,Benešovo náměstí",,50.6424118,13.8265842666667,401,,0,,Europe/Prague,1,
2:20:JDFS-20,,"Teplice,,Dubská",,50.64562855,13.818346,401,,0,,Europe/Prague,0,
2:20:JDFS-22,,"Teplice,,Lesní brána nádr.",,50.65099335,13.811543,401,,0,,Europe/Prague,0,
2:20:JDFS-23,,"Teplice,Trnovany",,50.6522336,13.8440114,401,,0,,Europe/Prague,0,
2:20:JDFS-24,,"Teplice,Trnovany,čerp.st.",,50.65393795,13.84973715,401,,0,,Europe/Prague,0,
2:20:JDFS-25,,"Teplice,Trnovany,Policie ČR",,50.65040015,13.83803655,401,,0,,Europe/Prague,0,
2:20:JDFS-26,,"Dubí,Mstišov,Dvojhradí",,50.6693802,13.7685933,421,,0,,Europe/Prague,0,
2:20:JDFS-27,,"Krupka,,prům.zóna III",,50.6643257,13.8716173,431,,0,,Europe/Prague,0,
2:20:JDFS-28,,"Dubí,Pozorka,Lesní brána",,50.65617135,13.8062637,421,,0,,Europe/Prague,0,
2:20:JDFS-3,,Srbice,,50.6605062,13.86856555,401,,0,,Europe/Prague,0,
2:20:JDFS-5,,"Krupka,,prům.zóna I",,50.6643257,13.8716173,431,,0,,Europe/Prague,0,
2:20:JDFS-6,,"Krupka,,prům.zóna II",,50.6643257,13.8716173,431,,0,,Europe/Prague,0,
2:20:JDFS-7,,"Dubí,,Krušnohorská",,50.6766403333333,13.7933963,421,,0,,Europe/Prague,0,
2:20:JDFS-8,,"Dubí,Mstišov",,50.66708,13.773469,421,,0,,Europe/Prague,0,
2:20:JDFS-9,,"Dubí,Mstišov,nám.",,50.6649766,13.7811594,421,,0,,Europe/Prague,0,
2:211:JDFS-13,,"Ústí n.L.,,Vozovna DP",,50.6611176,13.9966841,101,,0,,Europe/Prague,0,
2:211:JDFS-15,,"Ústí n.L.,Klíše,lázně",,50.6661568,14.0145235,101,,0,,Europe/Prague,0,
2:217:JDFS-4,,"Teplice,Trnovany,Modlanská",,50.6526111,13.84774735,401,,0,,Europe/Prague,0,
2:217:JDFS-5,,"Teplice,Trnovany,Somet",,50.6513519,13.8557587,401,,0,,Europe/Prague,0,
2:218:JDFS-1,,Bečov,,50.449175,13.71772575,241,,0,,Europe/Prague,0,
2:218:JDFS-10,,"Liběšice,,kaplička",,50.5198936,13.7459135,232,,0,,Europe/Prague,0,
2:218:JDFS-11,,"Lišnice,,rozc.",,50.4522743,13.63337,202,,0,,Europe/Prague,0,
2:218:JDFS-14,,Nemilkov,,50.45415,13.6209612,202,,0,,Europe/Prague,0,
2:218:JDFS-15,,Obrnice,,50.50489282,13.69681464,201,,0,,Europe/Prague,0,
2:218:JDFS-16,,"Bělušice,Odolice,osada",,50.4434776,13.7765408,245,,0,,Europe/Prague,0,
2:218:JDFS-18,,Polerady,,50.44408,13.6536045,242,,0,,Europe/Prague,0,
2:218:JDFS-19,,"Střimice,,letiště",,50.52567,13.6763582,201,,0,,Europe/Prague,0,
2:218:JDFS-21,,Volevčice,,50.434494,13.6896785333333,243,,0,,Europe/Prague,0,
2:218:JDFS-22,,Želenice,,50.20958,14.164381,232,,0,,Europe/Prague,0,
2:218:JDFS-23,,"Želenice,,štěrkovna",,50.52485465,13.7340665,232,,0,,Europe/Prague,0,
2:218:JDFS-24,,"Volevčice,,za kostelem",,50.4339447,13.6914129,243,,0,,Europe/Prague,0,
2:218:JDFS-27,,"Most,,Speciální škola",,50.49837,13.6506643,201,,0,,Europe/Prague,0,
2:218:JDFS-29,,"Most,,Sukova blok 508",,50.5034922,13.65441275,201,,0,,Europe/Prague,0,
2:218:JDFS-3,,Bělušice,,50.4503647333333,13.7640463666667,245,,0,,Europe/Prague,0,
2:218:JDFS-30,,"Lišnice,Koporeč",,50.4439926,13.6282768,202,,0,,Europe/Prague,0,
2:218:JDFS-8,,"Most,,Zimní stadion",,50.5136854,13.64682605,201,,0,,Europe/Prague,0,
2:223:JDFS-1,,Domašín,,50.421566,13.1730452,545,,0,,Europe/Prague,0,
2:225:JDFS-15,,"Krupka,Fojtovice",,50.7153854,13.8547573,432,,0,,Europe/Prague,0,
2:225:JDFS-16,,"Krupka,Fojtovice,Komáří vížka",,50.70667135,13.8519373,432,,0,,Europe/Prague,0,
2:225:JDFS-17,,"Krupka,Horní Krupka",,50.70314225,13.85590645,432,,0,,Europe/Prague,0,
2:225:JDFS-18,,"Krupka,Horní Krupka,host.",,50.70314225,13.85590645,432,,0,,Europe/Prague,0,
2:225:JDFS-2,,"Krupka,,kanceláře",,50.6929817,13.8552837,431,,0,,Europe/Prague,0,
2:225:JDFS-3,,"Krupka,,Martinka",,50.6972063,13.84688,431,,0,,Europe/Prague,0,
2:225:JDFS-7,,"Krupka,,zahr.kolonie",,50.69252335,13.8521056,431,,0,,Europe/Prague,0,
2:228:JDFS-1,,"Libouchec,Čermná",,50.7403564,14.0832119,131,,0,,Europe/Prague,0,
2:22:JDFS-1,,"Malšovice,Borek",,50.71922,14.172039,319,,0,,Europe/Prague,0,
2:22:JDFS-10,,"Malšovice,,dol.ves",,50.7412123,14.1730337,319,,0,,Europe/Prague,0,
2:22:JDFS-11,,"Malšovice,,rest.",,50.7353363,14.16947555,"319,319",,0,,Europe/Prague,0,
2:22:JDFS-12,,"Malšovice,,Četrans",,50.7422986,14.1766777,301,,0,,Europe/Prague,0,
2:22:JDFS-13,,"Malšovice,Hliněná",,50.7254486,14.1537137,319,,0,,Europe/Prague,0,
2:22:JDFS-14,,"Malšovice,Hliněná,rozc.",,50.73198255,14.14604475,319,,0,,Europe/Prague,0,
2:22:JDFS-15,,"Malšovice,Nová Bohyně,rozc.",,50.73389715,14.14672755,319,,0,,Europe/Prague,0,
2:22:JDFS-16,,"Malšovice,Stará Bohyně,rozc.",,50.73602865,14.1546577,319,,0,,Europe/Prague,0,
2:22:JDFS-17,,"Děčín,,Alusuisse",,50.7644011,14.2032013,301,,0,,Europe/Prague,0,
2:22:JDFS-18,,"Děčín,,Kovošrot",,50.762255,14.20010565,301,,0,,Europe/Prague,0,
2:22:JDFS-19,,"Malšovice,,točna",,50.7338448,14.1771164,319,,0,,Europe/Prague,0,
2:22:JDFS-3,,"Děčín,,Desta",,50.77033,14.2080364,301,,0,,Europe/Prague,0,
2:22:JDFS-4,,"Děčín,,Diana",,50.75855675,14.19506455,301,,0,,Europe/Prague,0,
2:22:JDFS-6,,"Děčín,,Monos",,50.7519184,14.185081,301,,0,,Europe/Prague,0,
2:22:JDFS-7,,"Děčín,Vilsnice",,50.7455654,14.18103885,301,,0,,Europe/Prague,0,
2:22:JDFS-8,,"Děčín,Vilsnice,záv.",,50.74464,14.17930565,301,,0,,Europe/Prague,0,
2:22:JDFS-9,,"Malšovice,Javory",,50.72995,14.1343527,319,,0,,Europe/Prague,0,
2:235:JDFS-10,,"Staré Křečany,,Jednota",,50.9439662,14.4868202,384,,0,,Europe/Prague,0,
2:235:JDFS-11,,"Staré Křečany,,ObÚ",,50.95081755,14.49738835,384,,0,,Europe/Prague,0,
2:235:JDFS-12,,"Staré Křečany,,u statku",,50.95781355,14.51767255,381,,0,,Europe/Prague,0,
2:235:JDFS-13,,"Rumburk,,Šluknovská",,50.95753285,14.54400345,381,,0,,Europe/Prague,0,
2:235:JDFS-22,,"Rumburk,Dolní Křečany",,50.96047115,14.533514275,381,,0,,Europe/Prague,0,
2:235:JDFS-23,,"Rumburk,Dolní Křečany,host.",,50.96047115,14.533514275,381,,0,,Europe/Prague,0,
2:235:JDFS-8,,Staré Křečany,,50.95556,14.5095778,384,,0,,Europe/Prague,0,
2:235:JDFS-9,,"Staré Křečany,,Elite",,50.9497514,14.48751495,384,,0,,Europe/Prague,0,
2:239:JDFS-1,,"Stebno,Chvalov",,50.60256,14.057703,113,,0,,Europe/Prague,0,
2:239:JDFS-10,,"Trmice,,Panorama",,50.63973,14.0117869,101,,0,,Europe/Prague,0,
2:239:JDFS-17,,"Trmice,,Újezd",,50.63851545,14.0060339,101,,0,,Europe/Prague,0,
2:239:JDFS-18,,"Stebno,Milbohov,háj.",,50.6269891,14.018494825,101,,0,,Europe/Prague,0,
2:239:JDFS-2,,"Stebno,Milbohov",,50.6269891,14.018494825,113,,0,,Europe/Prague,0,
2:239:JDFS-3,,"Stebno,Podlešín",,50.62317465,14.03650475,113,,0,,Europe/Prague,0,
2:239:JDFS-4,,Stebno,,50.6146736,14.0177956,"113,113",,0,,Europe/Prague,0,
2:239:JDFS-5,,"Stebno,Suchá",,50.61207,13.9999695,113,,0,,Europe/Prague,0,
2:239:JDFS-8,,"Ústí n.L.,Hostovice",,50.6428604,14.01725915,101,,0,,Europe/Prague,0,
2:239:JDFS-9,,"Trmice,,můstek",,50.64240805,14.00380755,101,,0,,Europe/Prague,0,
2:23:JDFS-10,,Chlumec,,50.69755855,13.94068315,121,,0,,Europe/Prague,0,
2:23:JDFS-12,,Přestanov,,50.685488025,13.9202893,122,,0,,Europe/Prague,0,
2:23:JDFS-14,,"Ústí n.L.,,Staré Předlice",,50.6586399,13.9883914,101,,0,,Europe/Prague,0,
2:23:JDFS-25,,"Ústí n.L.,,U Vozovny",,50.6573448,13.9964342,101,,0,,Europe/Prague,0,
2:23:JDFS-28,,"Chabařovice,,Ravel",,50.6676083,13.9596157,123,,0,,Europe/Prague,0,
2:23:JDFS-29,,"Chabařovice,,Chabařovická",,50.6640377,13.96775435,123,,0,,Europe/Prague,0,
2:23:JDFS-30,,"Chabařovice,,radnice",,50.67234255,13.94480785,123,,0,,Europe/Prague,0,
2:23:JDFS-31,,"Chabařovice,,kostel",,50.67404635,13.9386048,123,,0,,Europe/Prague,0,
2:23:JDFS-32,,"Chabařovice,,koupaliště",,50.6779175,13.9392347,123,,0,,Europe/Prague,0,
2:23:JDFS-33,,"Chabařovice,,strojírny",,50.689675,13.9429514,121,,0,,Europe/Prague,0,
2:23:JDFS-34,,"Chabařovice,,Teplická",,50.6789713,13.93358515,123,,0,,Europe/Prague,0,
2:23:JDFS-35,,"Děčín,,Nám.5.května",,50.7722435,14.2134523,301,,0,,Europe/Prague,0,
2:23:JDFS-36,,"Děčín,,Žerotínova",,50.7699973,14.2139001,301,,0,,Europe/Prague,0,
2:23:JDFS-37,,"Děčín,,Křešice ČSPL učiliště",,50.7604103,14.21058275,301,,0,,Europe/Prague,0,
2:23:JDFS-38,,"Děčín,,Křešice Fruta",,50.75651345,14.2038822,301,,0,,Europe/Prague,0,
2:23:JDFS-39,,"Děčín,,Křešice škola",,50.75183795,14.19875,301,,0,,Europe/Prague,0,
2:23:JDFS-4,,"Děčín,,Zámecký rybník",,50.77720455,14.21457405,301,,0,,Europe/Prague,0,
2:23:JDFS-40,,"Děčín,Boletice n.L.,Koruna",,50.7438622,14.1925197,301,,0,,Europe/Prague,0,
2:23:JDFS-41,,"Děčín,Boletice n.L.,Lidový dům",,50.7391285,14.19083645,301,,0,,Europe/Prague,0,
2:23:JDFS-42,,"Děčín,Jakuby",,50.7143135,14.19725655,301,,0,,Europe/Prague,0,
2:23:JDFS-43,,"Těchlovice,,rozc.",,50.7028883,14.1994357,312,,0,,Europe/Prague,0,
2:23:JDFS-44,,"Těchlovice,,Zadní Lhota",,50.69054225,14.19825935,312,,0,,Europe/Prague,0,
2:23:JDFS-45,,"Těchlovice,,Přerov",,50.6875267,14.1937609,312,,0,,Europe/Prague,0,
2:23:JDFS-6,,"Děčín,Nebočady",,50.731294,14.19043445,301,,0,,Europe/Prague,0,
2:23:JDFS-7,,Těchlovice,,50.696551325,14.202842725,312,,0,,Europe/Prague,0,
2:23:JDFS-8,,"Chabařovice,,Petri",,50.66922265,13.95478395,123,,0,,Europe/Prague,0,
2:23:JDFS-9,,"Chabařovice,Hrbovice",,50.6614287,13.97330255,123,,0,,Europe/Prague,0,
2:240:JDFS-1,,"Petrohrad,Černčice",,50.1396179,13.436738,945,,0,,Europe/Prague,0,
2:240:JDFS-10,,"Vroutek,,Kryrská",,50.1777534,13.384552,941,,0,,Europe/Prague,0,
2:240:JDFS-11,,"Jesenice,Chotěšov",,50.1204,13.4811611,954,,0,,Europe/Prague,0,
2:240:JDFS-12,,"Kryry,,sklárna",,50.1717911,13.4181514,944,,0,,Europe/Prague,0,
2:240:JDFS-14,,"Kryry,,Železniční",,50.1689949,13.4248905,944,,0,,Europe/Prague,0,
2:240:JDFS-2,,"Petrohrad,Černčice,škola",,50.14225,13.43595,945,,0,,Europe/Prague,0,
2:240:JDFS-3,,"Jesenice,,nám.",,50.09854845,13.4715104,954,,0,,Europe/Prague,0,
2:240:JDFS-4,,"Jesenice,,žel.st.",,50.0931989,13.47029975,954,,0,,Europe/Prague,0,
2:240:JDFS-5,,Kryry,,50.1715558,13.4228429666667,944,,0,,Europe/Prague,0,
2:240:JDFS-6,,Petrohrad,,50.1272964,13.4471159,945,,0,,Europe/Prague,0,
2:242:JDFS-12,,"Zálužice,,rozc.",,50.31740855,13.60912275,843,,0,,Europe/Prague,0,
2:242:JDFS-7,,"Postoloprty,Mradice,mlýn",,50.33016,13.6678562,842,,0,,Europe/Prague,0,
2:242:JDFS-9,,"Zálužice,Stekník",,50.32566835,13.6227091,843,,0,,Europe/Prague,0,
2:243:JDFS-12,,Proboštov,,50.6715279,13.8376656,421,,0,,Europe/Prague,0,
2:243:JDFS-13,,"Proboštov,,Přítkovská",,50.6786575,13.830471,421,,0,,Europe/Prague,0,
2:243:JDFS-5,,"Dubí,Běhánky,Pod návrším",,50.67745,13.8079,421,,0,,Europe/Prague,0,
2:244:JDFS-1,,"Česká Kamenice,,Fibichova",,50.8051266,14.44285155,351,,0,,Europe/Prague,0,
2:244:JDFS-13,,"Česká Kamenice,Horní Kamenice",,50.801445,14.4348931,351,,0,,Europe/Prague,0,
2:244:JDFS-15,,"Horní Podluží,,u vleku",,50.87857625,14.5569048,364,,0,,Europe/Prague,0,
2:244:JDFS-18,,"Chřibská,,ozdravovna",,50.8511584,14.47670985,361,,0,,Europe/Prague,0,
2:244:JDFS-20,,Ludvíkovice,,50.79091895,14.25641775,347,,0,,Europe/Prague,0,
2:244:JDFS-31,,"Česká Kamenice,Líska",,50.8240776,14.4744215,351,,0,,Europe/Prague,0,
2:244:JDFS-32,,"Česká Kamenice,Líska,hor.",,50.81806,14.450141,351,,0,,Europe/Prague,0,
2:244:JDFS-33,,"Česká Kamenice,Líska,Křížový buk",,50.831805,14.49053045,351,,0,,Europe/Prague,0,
2:245:JDFS-10,,"Bitozeves,Tatinná",,50.38132615,13.6071196,812,,0,,Europe/Prague,0,
2:245:JDFS-11,,"Postoloprty,Vrbka",,50.3813438,13.6941977,811,,0,,Europe/Prague,0,
2:245:JDFS-13,,"Postoloprty,Seletice",,50.3684,13.6675282,811,,0,,Europe/Prague,0,
2:245:JDFS-3,,"Bitozeves,Nehasice",,50.3849373,13.598,812,,0,,Europe/Prague,0,
2:245:JDFS-7,,"Postoloprty,,nám.",,50.3606453,13.70147,811,,0,,Europe/Prague,0,
2:245:JDFS-9,,"Postoloprty,Seménkovice",,50.36732305,13.6646934,811,,0,,Europe/Prague,0,
2:248:JDFS-1,,"Mikulášovice,,dol.-SAS",,50.97717145,14.34857655,393,,0,,Europe/Prague,0,
2:248:JDFS-12,,"Šluknov,Rožany",,51.0173683,14.45638235,391,,0,,Europe/Prague,0,
2:248:JDFS-13,,"Velký Šenov,Janovka,rozc.",,50.97905745,14.400713,392,,0,,Europe/Prague,0,
2:248:JDFS-14,,"Velký Šenov,Janovka",,50.98112,14.40836235,392,,0,,Europe/Prague,0,
2:248:JDFS-15,,"Šluknov,Rožany,Bytex",,51.0254822,14.4527359,391,,0,,Europe/Prague,0,
2:248:JDFS-16,,"Mikulášovice,,žel.st.dolní nádraží",,50.98335075,14.3410387,393,,0,,Europe/Prague,0,
2:248:JDFS-17,,"Šluknov,Císařský,odb.lom",,50.9992676,14.4219236,391,,0,,Europe/Prague,0,
2:248:JDFS-18,,"Mikulášovice,,U rybníčku",,50.9697437,14.3699808,393,,0,,Europe/Prague,0,
2:248:JDFS-19,,"Šluknov,Císařský,pod Hrazeným",,50.99141655,14.4163518,391,,0,,Europe/Prague,0,
2:248:JDFS-2,,"Mikulášovice,,Mikov",,50.9692154,14.34889845,393,,0,,Europe/Prague,0,
2:248:JDFS-3,,"Mikulášovice,,střední-škola",,50.9652157,14.36441945,393,,0,,Europe/Prague,0,
2:248:JDFS-4,,"Šluknov,,Budišínská",,51.00889155,14.45347785,391,,0,,Europe/Prague,0,
2:248:JDFS-7,,"Velký Šenov,,Stap",,50.9931946,14.3632917,392,,0,,Europe/Prague,0,
2:248:JDFS-8,,"Velký Šenov,,Stap 07",,50.9871254,14.3878536,392,,0,,Europe/Prague,0,
2:248:JDFS-9,,Vilémov,,50.99016,14.3375015,394,,0,,Europe/Prague,0,
2:249:JDFS-18,,"Hora Sv.Kateřiny,rozc.Malý Háj",,50.5863228,13.4195623,253,,0,,Europe/Prague,0,
2:24:JDFS-1,,"Krásná Lípa,,nám.",,50.9132462,14.5070477,386,,0,,Europe/Prague,0,
2:24:JDFS-10,,"Varnsdorf,,u Vorlíčků",,50.89844305,14.62864065,371,,0,,Europe/Prague,0,
2:24:JDFS-12,,"Varnsdorf,,Elite",,50.91099,14.6337,371,,0,,Europe/Prague,0,
2:24:JDFS-13,,"Varnsdorf,,TOS",,50.89054,14.6248522,371,,0,,Europe/Prague,0,
2:24:JDFS-15,,"Varnsdorf,Studánka",,50.9097557,14.56957,372,,0,,Europe/Prague,0,
2:24:JDFS-16,,"Varnsdorf,Studánka,pošta",,50.91009,14.5669007,372,,0,,Europe/Prague,0,
2:24:JDFS-18,,"Krásná Lípa,Krásný Buk",,50.9200467,14.49120765,386,,0,,Europe/Prague,0,
2:24:JDFS-19,,"Krásná Lípa,Sněžná",,50.9253737,14.4840565,386,,0,,Europe/Prague,0,
2:24:JDFS-2,,"Krásná Lípa,,háj.",,50.91120885,14.531415,386,,0,,Europe/Prague,0,
2:24:JDFS-20,,"Krásná Lípa,Vlčí Hora",,50.93205675,14.4643855,386,,0,,Europe/Prague,0,
2:24:JDFS-21,,"Krásná Lípa,Vlčí Hora,Žebrácká kaple",,50.9320221,14.47452165,386,,0,,Europe/Prague,0,
2:24:JDFS-22,,"Krásná Lípa,Zahrady,rozc.",,50.9346436,14.4825878666667,386,,0,,Europe/Prague,0,
2:24:JDFS-23,,"Staré Křečany,Brtníky,Na růžku",,50.9475411,14.4353285,385,,0,,Europe/Prague,0,
2:24:JDFS-24,,"Staré Křečany,Brtníky,nám.",,50.9479198,14.4424133,385,,0,,Europe/Prague,0,
2:24:JDFS-3,,"Krásná Lípa,,u samoobsluhy",,50.9140534,14.5162306,386,,0,,Europe/Prague,0,
2:24:JDFS-4,,"Krásná Lípa,,Varnsdorfská",,50.91580315,14.5237389,386,,0,,Europe/Prague,0,
2:24:JDFS-5,,"Krásná Lípa,,Kyjovská",,50.91704175,14.4959755,386,,0,,Europe/Prague,0,
2:24:JDFS-7,,"Varnsdorf,,poliklinika",,50.91115865,14.62567285,371,,0,,Europe/Prague,0,
2:24:JDFS-8,,"Varnsdorf,,Severní dráha",,50.90446755,14.63158175,371,,0,,Europe/Prague,0,
2:254:JDFS-1,,"Štětí,Brocno",,50.4775257,14.44492815,653,,0,,Europe/Prague,0,
2:254:JDFS-10,,"Štětí,Újezd",,50.500103,14.4384127,653,,0,,Europe/Prague,0,
2:254:JDFS-11,,"Štětí,Veselí",,50.4916518,14.44085785,653,,0,,Europe/Prague,0,
2:254:JDFS-13,,"Štětí,Radouň,Chcebuzská",,50.4793091,14.39844515,653,,0,,Europe/Prague,0,
2:254:JDFS-3,,"Štětí,Chcebuz",,50.4830944,14.4274003,"653,653",,0,,Europe/Prague,0,
2:258:JDFS-28,,"Krupka,Bohosudov,nám.",,50.6808243,13.8711672,431,,0,,Europe/Prague,0,
2:25:JDFS-1,,Černý Potok,,50.48984525,13.07823705,552,,0,,Europe/Prague,0,
2:25:JDFS-10,,Výsluní,,50.4663162,13.23801,527,,0,,Europe/Prague,0,
2:25:JDFS-11,,"Chomutov,,Bezručova",,50.46534885,13.40330695,501,,0,,Europe/Prague,0,
2:25:JDFS-12,,"Chomutov,,Černovická",,50.45792655,13.39007615,501,,0,,Europe/Prague,0,
2:25:JDFS-13,,"Křimov,Celná",,50.48185,13.2736416,521,,0,,Europe/Prague,0,
2:25:JDFS-14,,"Chomutov,,Jitřenka",,50.470045,13.4000621,501,,0,,Europe/Prague,0,
2:25:JDFS-2,,"Chomutov,,aut.nádr.",,50.460232225,13.4088714416667,501,,0,,Europe/Prague,0,
2:25:JDFS-3,,"Chomutov,,u žel.st.",,50.4577909333333,13.4002882666667,501,,0,,Europe/Prague,0,
2:25:JDFS-4,,Kryštofovy Hamry,,50.5001526,13.136488,558,,0,,Europe/Prague,0,
2:25:JDFS-5,,"Kryštofovy Hamry,,přehrada",,50.4882851,13.1279354,"558,558",,0,,Europe/Prague,0,
2:25:JDFS-6,,"Kryštofovy Hamry,,rozc.3.0",,50.485878,13.1076012,552,,0,,Europe/Prague,0,
2:25:JDFS-7,,"Vejprty,,aut.st.",,50.4918938,13.0320187,551,,0,,Europe/Prague,0,
2:25:JDFS-8,,"Vejprty,,háj.",,50.49105265,13.0434227,551,,0,,Europe/Prague,0,
2:25:JDFS-9,,"Vejprty,,Přísečnická",,50.4932232,13.037056,551,,0,,Europe/Prague,0,
2:260:JDFS-14,,"Ledvice,,kino",,50.5849838,13.7731953,484,,0,,Europe/Prague,0,
2:260:JDFS-17,,"Ohníč,,mlýn",,50.58937,13.8268337,482,,0,,Europe/Prague,0,
2:260:JDFS-18,,"Ohníč,Pňovičky",,50.6003838,13.8167763,482,,0,,Europe/Prague,0,
2:260:JDFS-21,,"Světec,Úpoř",,50.5806236,13.838994,486,,0,,Europe/Prague,0,
2:260:JDFS-3,,"Bílina,,sídl.ZCH Litoměřická",,50.5514918,13.7875438,461,,0,,Europe/Prague,0,
2:260:JDFS-4,,"Bílina,,sídl.ZCH sběrna",,50.55465315,13.7854571,461,,0,,Europe/Prague,0,
2:266:JDFS-21,,"Dubí,Běhánky",,,,421,,0,,Europe/Prague,0,
2:268:JDFS-1,,"Kamýk,,rozc.",,50.5565548,14.06996155,613,,0,,Europe/Prague,0,
2:268:JDFS-12,,Píšťany,,50.5193329,14.0707951,616,,0,,Europe/Prague,0,
2:268:JDFS-13,,"Libochovany,Řepnice",,50.56726455,14.0573456,614,,0,,Europe/Prague,0,
2:268:JDFS-16,,"Velké Žernoseky,,u hřiště",,50.5325433,14.06906315,611,,0,,Europe/Prague,0,
2:268:JDFS-17,,"Žalhostice,,škola",,50.52736,14.0795865,"617,617",,0,,Europe/Prague,0,
2:268:JDFS-18,,"Žalhostice,,žel.zast.",,50.52436,14.09615275,617,,0,,Europe/Prague,0,
2:268:JDFS-19,,"Žalhostice,Nové Píšťany",,50.5217984333333,14.082338,"617,617",,0,,Europe/Prague,0,
2:268:JDFS-2,,"Libochovany,,točna",,50.5661125,14.043046,614,,0,,Europe/Prague,0,
2:268:JDFS-20,,Žalhostice,,50.524065,14.0931554,617,,0,,Europe/Prague,0,
2:268:JDFS-21,,"Žalhostice,,Na Vinárně",,50.52748105,14.102901,617,,0,,Europe/Prague,0,
2:268:JDFS-5,,"Litoměřice,,chladírny",,50.5328331,14.1212406,601,,0,,Europe/Prague,0,
2:268:JDFS-6,,"Litoměřice,,jatky",,50.53240205,14.1146412,601,,0,,Europe/Prague,0,
2:268:JDFS-7,,"Litoměřice,,Pod Radobýlem",,50.5300716,14.10821455,601,,0,,Europe/Prague,0,
2:270:JDFS-1,,"Žiželice,Hořetice,žel.přejezd",,50.37699805,13.5094218,911,,0,,Europe/Prague,0,
2:270:JDFS-15,,"Žatec,,Prefa",,50.342699,13.5455561,901,,0,,Europe/Prague,0,
2:270:JDFS-2,,Hrušovany,,50.387078725,13.498151825,584,,0,,Europe/Prague,0,
2:270:JDFS-22,,"Žiželice,Hořetice,točna",,50.37982755,13.50686025,911,,0,,Europe/Prague,0,
2:270:JDFS-3,,"Hrušovany,,Na jezerech",,50.39353,13.5037365,584,,0,,Europe/Prague,0,
2:270:JDFS-7,,Lažany,,50.39966,13.5112581,584,,0,,Europe/Prague,0,
2:272:JDFS-11,,"Staré Křečany,U Slov.lípy",,50.951425,14.48563765,384,,0,,Europe/Prague,0,
2:272:JDFS-17,,"Varnsdorf,mlékárna",,50.91768835,14.60706375,371,,0,,Europe/Prague,0,
2:272:JDFS-24,,"Vilémov,klub",,50.99341015,14.32875015,394,,0,,Europe/Prague,0,
2:272:JDFS-26,,"Dolní Poustevna,Karlín",,50.99601,14.31456,397,,0,,Europe/Prague,0,
2:272:JDFS-27,,"Dolní Poustevna,Karlín,rozc.",,50.99601,14.31456,397,,0,,Europe/Prague,0,
2:272:JDFS-28,,"Rumburk,kult.dům",,50.9492375,14.5645981,381,,0,,Europe/Prague,0,
2:272:JDFS-3,,"Mikulášovice,hor.",,50.9565353,14.3905411,393,,0,,Europe/Prague,0,
2:272:JDFS-31,,"Rumburk,Horní Jindřichov,Bytex 06",,50.94343185,14.5784714,381,,0,,Europe/Prague,0,
2:272:JDFS-32,,"Rumburk,Horní Jindřichov,Rybena",,50.94704,14.5715165,381,,0,,Europe/Prague,0,
2:272:JDFS-35,,"Staré Křečany,Brtníky,rozc.",,50.95191385,14.4499698,385,,0,,Europe/Prague,0,
2:272:JDFS-36,,"Staré Křečany,Panský",,50.9505965,14.46657185,384,,0,,Europe/Prague,0,
2:272:JDFS-39,,"Seifhennersdorf,Am Rathaus",,50.93473055,14.6118493,293,,0,,Europe/Prague,0,
2:272:JDFS-4,,"Mikulášovice,hor.-Sv.Hubert",,50.9625263,14.37298195,393,,0,,Europe/Prague,0,
2:272:JDFS-40,,"Seifhennersdorf,Zollstr.",,50.93055245,14.61550425,293,,0,,Europe/Prague,0,
2:272:JDFS-41,,"Seifhennersdorf,Oberb.Grenzüb.Rumb.",,50.9394913,14.5861634,293,,0,,Europe/Prague,0,
2:272:JDFS-44,,"Varnsdorf,CLO",,,,x,,0,,Europe/Prague,0,
2:272:JDFS-45,,"Rumburk,CLO",,,,x,,0,,Europe/Prague,0,
2:272:JDFS-46,,"Seifhennersdorf,ZOLL",,50.93055245,14.61550425,"x,x",,0,,Europe/Prague,0,
2:272:JDFS-47,,"Seifhennersdorf,Oberschule",,50.9370716,14.59651375,293,,0,,Europe/Prague,0,
2:272:JDFS-9,,Staré Křečany,,50.9480743,14.4920931,384,,0,,Europe/Prague,0,
2:277:JDFS-1,,"Děčany,Semeč",,50.4452629,13.8942652,753,,0,,Europe/Prague,0,
2:27:JDFS-1,,"Bohušovice n.Ohří,,sídliště",,50.49653785,14.1465246,761,,0,,Europe/Prague,0,
2:27:JDFS-10,,"Chotěšov,,žel.st.",,50.44281005,14.0717115,713,,0,,Europe/Prague,0,
2:27:JDFS-11,,"Libochovice,,aut.nádr.",,50.4066658,14.0474758,721,,0,,Europe/Prague,0,
2:27:JDFS-12,,"Libochovice,,cukrovar",,50.4076512,14.05337335,721,,0,,Europe/Prague,0,
2:27:JDFS-13,,"Libochovice,,škola",,50.40382,14.0357056,"721,721",,0,,Europe/Prague,0,
2:27:JDFS-14,,"Libochovice,,Husova",,50.41009805,14.0467029,721,,0,,Europe/Prague,0,
2:27:JDFS-15,,"Libochovice,,žel.zast.město",,50.40763855,14.0383272,721,,0,,Europe/Prague,0,
2:27:JDFS-17,,"Litoměřice,,Palachova",,50.537465,14.13165895,601,,0,,Europe/Prague,0,
2:27:JDFS-19,,"Litoměřice,,žel.st.hor.",,50.54069265,14.1313834,601,,0,,Europe/Prague,0,
2:27:JDFS-2,,"Bohušovice n.Ohří,,žel.st.",,50.4917641,14.1490984,761,,0,,Europe/Prague,0,
2:27:JDFS-20,,"Litoměřice,,Želetická",,50.51911925,14.1371619,601,,0,,Europe/Prague,0,
2:27:JDFS-21,,"Bohušovice n.Ohří,,záv.",,50.49134,14.1491156,763,,0,,Europe/Prague,0,
2:27:JDFS-22,,Radovesice,,50.41125145,14.0686574,729,,0,,Europe/Prague,0,
2:27:JDFS-23,,Rochov,,50.46118895,14.1186472,719,,0,,Europe/Prague,0,
2:27:JDFS-25,,Slatina,,50.43002,14.0375824,728,,0,,Europe/Prague,0,
2:27:JDFS-29,,"Bohušovice n.Ohří,Hrdly,obec",,50.484293,14.17039695,761,,0,,Europe/Prague,0,
2:27:JDFS-3,,Brňany,,50.48152815,14.14190815,762,,0,,Europe/Prague,0,
2:27:JDFS-30,,"Dolánky n.Ohří,,obec",,50.47319265,14.1629686,764,,0,,Europe/Prague,0,
2:27:JDFS-32,,"Černiv,,ObÚ",,50.44534,14.058362,718,,0,,Europe/Prague,0,
2:27:JDFS-33,,"Chotěšov,,Na Návsi",,50.44025285,14.0814738,713,,0,,Europe/Prague,0,
2:27:JDFS-34,,"Vrbičany,,rozc.",,50.45957185,14.08730635,712,,0,,Europe/Prague,0,
2:27:JDFS-4,,"Brňany,,záv.",,50.4878287,14.14614125,762,,0,,Europe/Prague,0,
2:27:JDFS-6,,Černiv,,50.4446274,14.06081075,718,,0,,Europe/Prague,0,
2:27:JDFS-8,,Chotěšov,,50.43925475,14.0855074,713,,0,,Europe/Prague,0,
2:27:JDFS-9,,"Chotěšov,,Brozanská",,50.443229225,14.088508125,713,,0,,Europe/Prague,0,
2:283:JDFS-1,,"Černýš,,rozc.1.0",,50.373745,13.12471005,543,,0,,Europe/Prague,0,
2:283:JDFS-10,,Klášterecká Jeseň,,50.38852,13.132926,541,,0,,Europe/Prague,0,
2:283:JDFS-11,,"Klášterecká Jeseň,,rozc.",,50.38401845,13.14622065,541,,0,,Europe/Prague,0,
2:283:JDFS-12,,Lužný,,50.36902,13.1147475,543,,0,,Europe/Prague,0,
2:283:JDFS-13,,Okounov,,50.3659859,13.10653,544,,0,,Europe/Prague,0,
2:283:JDFS-14,,"Okounov,,ObÚ",,50.3614159,13.10676,544,,0,,Europe/Prague,0,
2:283:JDFS-15,,"Perštejn,,kino",,50.37966,13.1133633,543,,0,,Europe/Prague,0,
2:283:JDFS-16,,"Perštejn,,pošta",,50.3815842,13.1097641,543,,0,,Europe/Prague,0,
2:283:JDFS-22,,"Klášterec n.Ohří,,IP Verne I",,50.3992081,13.2181492,541,,0,,Europe/Prague,0,
2:283:JDFS-23,,"Klášterec n.Ohří,,IP Verne II",,50.4011765,13.2273664,541,,0,,Europe/Prague,0,
2:284:JDFS-16,,Moravěves,,50.4245567,13.6129293,202,,0,,Europe/Prague,0,
2:284:JDFS-21,,"Postoloprty,Rvenice",,50.37255,13.6803093,811,,0,,Europe/Prague,0,
2:284:JDFS-28,,"Havraň,,ke hřbitovu",,50.4433082,13.5989727,202,,0,,Europe/Prague,0,
2:284:JDFS-29,,"Blažim,,kostel",,50.4087282,13.62473205,816,,0,,Europe/Prague,0,
2:288:JDFS-14,,"Teplice,Řetenice,Perla",,50.6377697,13.8063612,401,,0,,Europe/Prague,0,
2:288:JDFS-23,,"Teplice,,Mariánský dvůr",,50.6364374,13.81528855,401,,0,,Europe/Prague,1,
2:288:JDFS-24,,"Teplice,Řetenice,V Břízkách",,50.637285,13.79746535,401,,0,,Europe/Prague,0,
2:290:JDFS-11,,"Hrob,Mlýny,záv.",,50.66519545,13.72940685,441,,0,,Europe/Prague,0,
2:290:JDFS-12,,"Hrob,Mlýny,myslivna",,50.6716461,13.7267847,441,,0,,Europe/Prague,0,
2:290:JDFS-14,,"Moldava,Nové Město,rozc.",,50.69283675,13.70346835,445,,0,,Europe/Prague,0,
2:290:JDFS-15,,"Moldava,Nové Město",,50.69119145,13.6957679,445,,0,,Europe/Prague,0,
2:290:JDFS-16,,"Moldava,,rozc.Fláje",,50.70417595,13.68945455,446,,0,,Europe/Prague,0,
2:290:JDFS-20,,"Teplice,,Jateční",,50.641075,13.81226065,401,,0,,Europe/Prague,0,
2:290:JDFS-23,,"Moldava,,rozc.st.hranice",,50.71681785,13.68610095,446,,0,,Europe/Prague,0,
2:290:JDFS-24,,"Moldava,,Dol.Moldava",,50.7201347,13.6475229,446,,0,,Europe/Prague,0,
2:290:JDFS-26,,"Moldava,,u hřiště",,50.7206136,13.6572895,446,,0,,Europe/Prague,0,
2:290:JDFS-5,,Mikulov,,50.68836685,13.72202775,444,,0,,Europe/Prague,0,
2:290:JDFS-6,,"Mikulov,,chata Vitiška",,50.6976188,13.7080531,444,,0,,Europe/Prague,0,
2:290:JDFS-7,,"Mikulov,,mlýn",,50.68538095,13.72201155,444,,0,,Europe/Prague,0,
2:290:JDFS-8,,"Moldava,,myslivna",,50.697199,13.69196895,445,,0,,Europe/Prague,0,
2:292:JDFS-40,,"Seifhennersdorf,Mittelschule",,,,-,,0,,Europe/Prague,0,
2:295:JDFS-17,,"Háj u Duchcova,,ObÚ",,50.6319351,13.7111568,448,,0,,Europe/Prague,0,
2:296:JDFS-1,,"Vroutek,Skytaly,rozc.1.0 Dětaň",,50.1946754,13.3228922,941,,0,,Europe/Prague,0,
2:296:JDFS-3,,"Vroutek,Mlýnce",,50.16039,13.3180819,942,,0,,Europe/Prague,0,
2:296:JDFS-6,,"Vroutek,Skytaly",,50.16833,13.3012543,942,,0,,Europe/Prague,0,
2:296:JDFS-7,,Valeč,,50.17436,13.2548094,946,,0,,Europe/Prague,0,
2:296:JDFS-8,,"Vroutek,Vesce,rozc.",,50.1591072,13.3297968,942,,0,,Europe/Prague,0,
2:296:JDFS-9,,"Vroutek,Vrbička",,50.17698,13.2938,942,,0,,Europe/Prague,0,
2:2:JDFS-1,,"Litoměřice,,6.ZŠ",,50.5378986,14.14359425,601,,0,,Europe/Prague,0,
2:2:JDFS-10,,Žitenice,,50.55553625,14.15741755,625,,0,,Europe/Prague,0,
2:2:JDFS-11,,"Žitenice,,Skalická",,50.56538,14.1389284,625,,0,,Europe/Prague,0,
2:2:JDFS-12,,"Žitenice,Skalice",,,,625,,0,,Europe/Prague,0,
2:2:JDFS-13,,"Žitenice,Skalice,Močidla",,50.560854,14.1480436,625,,0,,Europe/Prague,0,
2:2:JDFS-14,,"Žitenice,Skalice,ústav",,50.567515,14.14069285,625,,0,,Europe/Prague,0,
2:2:JDFS-15,,"Litoměřice,,katastrální úřad",,50.54015,14.14060165,601,,0,,Europe/Prague,0,
2:2:JDFS-2,,"Litoměřice,,Daliborova",,50.53572465,14.13841345,601,,0,,Europe/Prague,0,
2:2:JDFS-3,,"Litoměřice,,Michalovická",,50.53391,14.1221056,601,,0,,Europe/Prague,0,
2:2:JDFS-4,,"Litoměřice,,u pošty",,50.53638,14.13209965,601,,0,,Europe/Prague,0,
2:2:JDFS-5,,"Litoměřice,,Vojtěšské nám.",,50.5372124,14.1261873,601,,0,,Europe/Prague,0,
2:2:JDFS-6,,Malíč,,50.54337,14.0821327333333,612,,0,,Europe/Prague,0,
2:2:JDFS-7,,Michalovice,,50.5375023,14.081,615,,0,,Europe/Prague,0,
2:2:JDFS-8,,Velké Žernoseky,,,,611,,0,,Europe/Prague,0,
2:2:JDFS-9,,"Velké Žernoseky,,bytovky",,50.54278565,14.06666805,611,,0,,Europe/Prague,0,
2:301:JDFS-4,,Stebno,,50.6146431,14.0180731,"113,113",,0,,Europe/Prague,0,
2:303:JDFS-1,,"Petrohrad,Bílenec",,50.13664,13.46388,945,,0,,Europe/Prague,0,
2:303:JDFS-15,,"Kryry,Stebno",,50.1165924,13.41754,952,,0,,Europe/Prague,0,
2:303:JDFS-2,,Blatno,,50.09696,13.3897285,"951,951",,0,,Europe/Prague,0,
2:303:JDFS-26,,"Petrohrad,,ObÚ",,50.138916,13.4373846,945,,0,,Europe/Prague,0,
2:303:JDFS-3,,"Blatno,,žel.st.",,50.09983,13.3895035,951,,0,,Europe/Prague,0,
2:303:JDFS-7,,"Blatno,Malměřice",,50.11618995,13.3859067,951,,0,,Europe/Prague,0,
2:303:JDFS-8,,Petrohrad,,50.13566,13.4342728,945,,0,,Europe/Prague,0,
2:304:JDFS-2,,"Postoloprty,Březno,rozc.skanzen",,50.3527374,13.7481031,811,,0,,Europe/Prague,0,
2:307:JDFS-11,,"Obrnice,,štěrkovna",,50.509,13.7001991,201,,0,,Europe/Prague,0,
2:307:JDFS-12,,Patokryje,,50.50131,13.7057667,201,,0,,Europe/Prague,0,
2:307:JDFS-15,,"Svinčice,,otočka",,50.50068,13.7418728,247,,0,,Europe/Prague,0,
2:307:JDFS-16,,"Svinčice,,rozc.1.0",,50.49595155,13.73645115,247,,0,,Europe/Prague,0,
2:307:JDFS-18,,Vysoké Březno,,50.46415,13.5735216,208,,0,,Europe/Prague,0,
2:307:JDFS-4,,Lužice,,50.49277,13.7524118,247,,0,,Europe/Prague,0,
2:307:JDFS-5,,Malé Březno,,50.46374,13.5600452,208,,0,,Europe/Prague,0,
2:307:JDFS-6,,Bylany,,50.467025,13.6047144,208,,0,,Europe/Prague,0,
2:311:JDFS-19,,"Modlany,Drahkov",,50.64058115,13.869612,433,,0,,Europe/Prague,0,
2:311:JDFS-20,,"Modlany,Kvítkov",,50.6370739,13.88666725,433,,0,,Europe/Prague,0,
2:311:JDFS-21,,"Modlany,Kvítkov,Za Kvítkovem",,50.6385189,13.8809886,433,,0,,Europe/Prague,0,
2:311:JDFS-22,,"Modlany,Suché",,50.6333633,13.91118525,433,,0,,Europe/Prague,0,
2:311:JDFS-23,,"Modlany,Věšťany",,50.64553795,13.90050415,433,,0,,Europe/Prague,0,
2:311:JDFS-26,,"Teplice,,Fráni Šrámka",,50.64566805,13.84900615,401,,0,,Europe/Prague,0,
2:311:JDFS-28,,"Teplice,,Jankovcova",,50.6472015,13.8360677,401,,0,,Europe/Prague,0,
2:311:JDFS-30,,"Teplice,,Masarykova",,50.64607,13.8329048,401,,0,,Europe/Prague,1,
2:311:JDFS-31,,"Teplice,,Panorama",,50.641975,13.8532014,401,,0,,Europe/Prague,0,
2:311:JDFS-32,,"Teplice,,Plavecká hala",,50.64471,13.8413887,401,,0,,Europe/Prague,0,
2:311:JDFS-33,,"Teplice,,Raisova",,50.64473875,13.84740445,401,,0,,Europe/Prague,0,
2:31:JDFS-1,,Hošnice,,50.45725635,13.53934145,574,,0,,Europe/Prague,0,
2:31:JDFS-10,,Nové Ervěnice,,50.4940529,13.4455042,511,,0,,Europe/Prague,0,
2:31:JDFS-11,,Okořín,,50.47344,13.5036888,574,,0,,Europe/Prague,0,
2:31:JDFS-12,,Pesvice,,50.46337,13.4838514,575,,0,,Europe/Prague,0,
2:31:JDFS-13,,Strupčice,,50.4717865,13.5303583,574,,0,,Europe/Prague,0,
2:31:JDFS-14,,"Strupčice,,škola",,50.4692421,13.5336761,574,,0,,Europe/Prague,0,
2:31:JDFS-15,,Sušany,,50.44466,13.5539455,574,,0,,Europe/Prague,0,
2:31:JDFS-16,,Vrskmaň,,50.4887657,13.4967756,573,,0,,Europe/Prague,0,
2:31:JDFS-17,,Všestudy,,50.4590454,13.5066452,576,,0,,Europe/Prague,0,
2:31:JDFS-18,,Zaječice,,50.4867859,13.4788017,573,,0,,Europe/Prague,0,
2:31:JDFS-19,,"Chomutov,,Palackého",,50.45991735,13.41629795,501,,0,,Europe/Prague,0,
2:31:JDFS-20,,"Jirkov,,Dvořákova",,50.4993673,13.4435763,511,,0,,Europe/Prague,0,
2:31:JDFS-21,,"Chomutov,,Průmyslová zóna I",,50.4510227,13.4334865,501,,0,,Europe/Prague,0,
2:31:JDFS-22,,"Údlice,,pila",,50.4425926,13.4557419,501,,0,,Europe/Prague,0,
2:31:JDFS-23,,"Údlice,,čistička",,50.445745,13.4510541,501,,0,,Europe/Prague,0,
2:31:JDFS-24,,"Chomutov,,Průmyslová zóna II",,50.4510227,13.4334865,501,,0,,Europe/Prague,0,
2:31:JDFS-25,,"Údlice,,zahrádky",,50.4483833,13.4459019,501,,0,,Europe/Prague,0,
2:31:JDFS-3,,"Chomutov,,Důl J.Žižky",,50.45231655,13.43671275,501,,0,,Europe/Prague,0,
2:31:JDFS-4,,"Chomutov,,Písečná",,50.4901329,13.4435439,501,,0,,Europe/Prague,0,
2:31:JDFS-5,,"Chomutov,,u pekárny",,50.45640375,13.42206575,501,,0,,Europe/Prague,0,
2:31:JDFS-6,,"Jirkov,,aut.nádr.",,50.4985417333333,13.4501863,511,,0,,Europe/Prague,0,
2:31:JDFS-7,,"Jirkov,,Červenohrádecká",,50.50242995,13.44621565,511,,0,,Europe/Prague,0,
2:31:JDFS-8,,"Jirkov,,hřbitov",,50.49596975,13.4563179,511,,0,,Europe/Prague,0,
2:31:JDFS-9,,"Jirkov,,žel.st.",,50.48613,13.4473639,511,,0,,Europe/Prague,0,
2:32:JDFS-10,,"Merboltice,,Hraničář",,50.6947637,14.3464737,335,,0,,Europe/Prague,0,
2:32:JDFS-11,,"Merboltice,,I",,50.6989746,14.3620596,335,,0,,Europe/Prague,0,
2:32:JDFS-12,,"Merboltice,,konečná",,50.6847305,14.339777,335,,0,,Europe/Prague,0,
2:32:JDFS-13,,"Starý Šachov,,rozc.",,50.7162471,14.36919495,333,,0,,Europe/Prague,0,
2:32:JDFS-14,,"Starý Šachov,,žel.st.",,50.7207947,14.37528135,333,,0,,Europe/Prague,0,
2:32:JDFS-15,,"Velká Bukovina,,cihelna",,50.72563,14.3996487,334,,0,,Europe/Prague,0,
2:32:JDFS-16,,"Velká Bukovina,,rozc.",,50.730015,14.39698745,358,,0,,Europe/Prague,0,
2:32:JDFS-19,,"Žandov,,nám.",,50.71336175,14.3966025,334,,0,,Europe/Prague,0,
2:32:JDFS-2,,"Dolní Habartice,,ObÚ",,50.749181775,14.3355372,359,,0,,Europe/Prague,0,
2:32:JDFS-20,,"Starý Šachov,,otočka",,50.7117424,14.3598137,333,,0,,Europe/Prague,0,
2:32:JDFS-21,,"Benešov n.Pl.,,žel.st.",,50.7391243,14.3091345,331,,0,,Europe/Prague,0,
2:32:JDFS-22,,"Benešov n.Pl.,,Pod parkem",,50.74155,14.3059711,331,,0,,Europe/Prague,0,
2:32:JDFS-3,,"Dolní Habartice,,rozc.",,50.75365375,14.34024955,359,,0,,Europe/Prague,0,
2:32:JDFS-4,,"Velká Bukovina,Karlovka",,50.741395,14.3953438,358,,0,,Europe/Prague,0,
2:32:JDFS-5,,"Velká Bukovina,Karlovka,samota",,50.74321175,14.3867116,358,,0,,Europe/Prague,0,
2:32:JDFS-6,,"Velká Bukovina,Malá Bukovina,ObÚ",,50.7455349,14.3729835,358,,0,,Europe/Prague,0,
2:32:JDFS-7,,"Velká Bukovina,Malá Bukovina,u křížku",,50.74390615,14.379395,358,,0,,Europe/Prague,0,
2:32:JDFS-8,,"Merboltice,,dol.část",,50.69864855,14.35508635,335,,0,,Europe/Prague,0,
2:32:JDFS-9,,"Merboltice,,host.",,50.69132425,14.3457098,335,,0,,Europe/Prague,0,
2:33:JDFS-10,,"Chudoslavice,Myštice,rozc.0.5",,50.57022475,14.18758535,623,,0,,Europe/Prague,0,
2:33:JDFS-11,,Ploskovice,,50.56076,14.1993036,622,,0,,Europe/Prague,0,
2:33:JDFS-12,,"Žitenice,Pohořany",,50.55940245,14.17031525,625,,0,,Europe/Prague,0,
2:33:JDFS-13,,"Bohušovice n.Ohří,,záv.",,50.5027275,14.1461287,763,,0,,Europe/Prague,0,
2:33:JDFS-14,,"Staňkovice,,mlýn",,50.5896177,14.17411375,624,,0,,Europe/Prague,0,
2:33:JDFS-15,,"Staňkovice,,rozc.",,50.59591365,14.1812067,623,,0,,Europe/Prague,0,
2:33:JDFS-16,,"Ploskovice,Těchobuzice",,50.56887395,14.2028334,622,,0,,Europe/Prague,0,
2:33:JDFS-18,,Třebušín,,50.6000443,14.2049046,621,,0,,Europe/Prague,0,
2:33:JDFS-20,,"Třebušín,,Všeradiště rozc.0.5",,50.59976855,14.18361265,621,,0,,Europe/Prague,0,
2:33:JDFS-22,,"Žitenice,,Pohořanská",,50.55684225,14.16296435,625,,0,,Europe/Prague,0,
2:33:JDFS-23,,"Třebušín,,pečovatelský dům",,50.59848405,14.2007427,621,,0,,Europe/Prague,0,
2:33:JDFS-24,,"Třebušín,Dolní Týnec",,50.59930355,14.2355485,621,,0,,Europe/Prague,0,
2:33:JDFS-25,,"Třebušín,Horní Týnec",,50.60384875,14.237031,621,,0,,Europe/Prague,0,
2:33:JDFS-27,,"Ploskovice,,Slovárna",,50.55864215,14.19357155,622,,0,,Europe/Prague,0,
2:33:JDFS-3,,Chudoslavice,,50.58342935,14.1875324,623,,0,,Europe/Prague,0,
2:33:JDFS-8,,"Ploskovice,Maškovice",,50.5582695,14.18755455,622,,0,,Europe/Prague,0,
2:34:JDFS-1,,"Bílina,,aut.nádr.",,50.5530321333333,13.77265825,461,,0,,Europe/Prague,0,
2:34:JDFS-10,,"Hostomice,,sklárna",,50.58739855,13.8004198,481,,0,,Europe/Prague,0,
2:34:JDFS-11,,"Hostomice,,Tuchlov rozc.",,50.60144425,13.80828905,482,,0,,Europe/Prague,0,
2:34:JDFS-12,,Hrobčice,,50.51920175,13.78328515,473,,0,,Europe/Prague,0,
2:34:JDFS-13,,"Libčeves,Charvatce",,50.4251041,13.8093171,851,,0,,Europe/Prague,0,
2:34:JDFS-14,,"Světec,Chotějovice",,50.5787334,13.79214405,483,,0,,Europe/Prague,0,
2:34:JDFS-15,,"Chudeřice,,nám.",,50.5633335,13.78190185,461,,0,,Europe/Prague,0,
2:34:JDFS-16,,"Chudeřice,,záv.",,50.5713288,13.78473045,461,,0,,Europe/Prague,0,
2:34:JDFS-17,,Kladruby,,50.61149265,13.8305008,485,,0,,Europe/Prague,0,
2:34:JDFS-18,,Kozly,,50.4571037,13.784647,854,,0,,Europe/Prague,0,
2:34:JDFS-19,,"Ledvice,,úpravna uhlí",,50.5794868,13.7823648,483,,0,,Europe/Prague,0,
2:34:JDFS-2,,"Bílina,,poliklinika",,50.5406532,13.7827953,461,,0,,Europe/Prague,0,
2:34:JDFS-20,,"Louny,,aut.nádr.",,50.3548477611111,13.8046656388889,801,,0,,Europe/Prague,0,
2:34:JDFS-21,,"Louny,,Žižkova",,50.35746845,13.7926679,801,,0,,Europe/Prague,0,
2:34:JDFS-22,,"Měrunice,,rozc.",,50.4782575,13.796867175,475,,0,,Europe/Prague,0,
2:34:JDFS-23,,"Libčeves,Mnichov",,50.4206867,13.80828525,851,,0,,Europe/Prague,0,
2:34:JDFS-24,,"Bělušice,Odolice,rozc.",,50.44150165,13.7815828,245,,0,,Europe/Prague,0,
2:34:JDFS-25,,Raná,,50.41234,13.78048755,853,,0,,Europe/Prague,0,
2:34:JDFS-26,,"Teplice,,Bílinská",,50.6333656,13.8200426,401,,0,,Europe/Prague,1,
2:34:JDFS-27,,"Teplice,,Zámecká zahrada",,50.635970125,13.8190925,"401,401",,0,,Europe/Prague,1,
2:34:JDFS-28,,"Bílina,,Lidl",,50.54646,13.771081,461,,0,,Europe/Prague,0,
2:34:JDFS-29,,"Louny,,sokolovna",,50.3555851,13.7951994,801,,0,,Europe/Prague,0,
2:34:JDFS-3,,"Bílina,,pož.zbroj.",,50.55039405,13.77544675,461,,0,,Europe/Prague,0,
2:34:JDFS-32,,"Bělušice,,ObÚ",,50.44921,13.7646818,245,,0,,Europe/Prague,0,
2:34:JDFS-33,,"Hrobčice,Mirošovice",,50.5042,13.785336,473,,0,,Europe/Prague,0,
2:34:JDFS-4,,"Bílina,,sídliště",,50.55804845,13.7784729,461,,0,,Europe/Prague,0,
2:34:JDFS-5,,"Bílina,,VMG I",,50.5626526,13.7687426,461,,0,,Europe/Prague,0,
2:34:JDFS-6,,Dobroměřice,,50.3702850333333,13.7956705,856,,0,,Europe/Prague,0,
2:34:JDFS-7,,"Dobroměřice,,Jednota",,50.3715439,13.78734875,856,,0,,Europe/Prague,0,
2:34:JDFS-8,,"Hostomice,,nadjezd",,50.589415,13.79914375,481,,0,,Europe/Prague,0,
2:34:JDFS-9,,"Hostomice,,nám.",,50.58815005,13.80751895,481,,0,,Europe/Prague,0,
2:35:JDFS-28,,"Ústí n.L.,,Přístaviště",,,,101,,0,,Europe/Prague,0,
2:37:JDFS-10,,"Úštěk,Julčín",,50.5283514,14.3704397,634,,0,,Europe/Prague,0,
2:37:JDFS-12,,"Úštěk,Lhota,rozc.0.7",,50.57145345,14.3537302,631,,0,,Europe/Prague,0,
2:37:JDFS-13,,"Hoštka,Malešov",,50.50996675,14.32224705,654,,0,,Europe/Prague,0,
2:37:JDFS-14,,"Hoštka,Malešov,rozc.",,50.5112376,14.31231265,654,,0,,Europe/Prague,0,
2:37:JDFS-18,,"Drahobuz,Strážiště,rozc.",,50.53667155,14.3406944,637,,0,,Europe/Prague,0,
2:37:JDFS-2,,Drahobuz,,50.5256,14.32045,637,,0,,Europe/Prague,0,
2:37:JDFS-21,,"Úštěk,Tetčiněves",,50.560505,14.34537365,634,,0,,Europe/Prague,0,
2:37:JDFS-23,,"Úštěk,,údolí",,50.583785,14.3451533,631,,0,,Europe/Prague,0,
2:37:JDFS-25,,"Úštěk,Vědlice",,50.52721515,14.345299625,"634,634",,0,,Europe/Prague,0,
2:37:JDFS-27,,"Úštěk,Rochov",,50.5484638,14.3416538,634,,0,,Europe/Prague,0,
2:37:JDFS-28,,"Štětí,Hněvice,rozc.žel.st.",,50.4543446666667,14.3623696,651,,0,,Europe/Prague,0,
2:37:JDFS-3,,"Štětí,Hněvice,obec",,50.44667815,14.3688488,651,,0,,Europe/Prague,0,
2:37:JDFS-4,,"Štětí,Hněvice,čerp.st.",,50.4348373,14.3728046,651,,0,,Europe/Prague,0,
2:37:JDFS-5,,"Štětí,Hněvice,žel.st.",,50.4543446666667,14.3623696,651,,0,,Europe/Prague,0,
2:37:JDFS-6,,Horní Počaply,,50.4241828857143,14.3883466,658,,0,,Europe/Prague,0,
2:37:JDFS-7,,"Horní Počaply,,žel.st.",,50.4226551,14.38633695,658,,0,,Europe/Prague,0,
2:37:JDFS-8,,"Hoštka,,Na vyhlídce",,50.478292,14.34740545,654,,0,,Europe/Prague,0,
2:37:JDFS-9,,"Hoštka,,nám.",,50.48908845,14.3358094,654,,0,,Europe/Prague,0,
2:38:JDFS-1,,"Hořenice,,rozc.",,50.33708265,13.3443389,568,,0,,Europe/Prague,0,
2:38:JDFS-10,,Malé Krhovice,,50.335585,13.37756635,568,,0,,Europe/Prague,0,
2:38:JDFS-11,,"Malé Krhovice,,rozc.0.5",,50.3338146,13.37694165,568,,0,,Europe/Prague,0,
2:38:JDFS-12,,Nové Sedlo,,50.3388634,13.4741545,963,,0,,Europe/Prague,0,
2:38:JDFS-13,,"Chbany,Poláky",,50.33601955,13.3528681,568,,0,,Europe/Prague,0,
2:38:JDFS-14,,"Prunéřov,,ČSAD",,50.39876175,13.27680825,532,,0,,Europe/Prague,0,
2:38:JDFS-15,,"Prunéřov,,EPRU I",,50.4192429,13.2549629,532,,0,,Europe/Prague,0,
2:38:JDFS-16,,"Prunéřov,,EPRU II",,,,532,,0,,Europe/Prague,0,
2:38:JDFS-17,,"Prunéřov,,STS",,50.4016724,13.2775278,532,,0,,Europe/Prague,0,
2:38:JDFS-18,,"Přeskaky,,rozc.",,50.33245,13.4185143,568,,0,,Europe/Prague,0,
2:38:JDFS-19,,Rokle,,50.3534982,13.29774235,562,,0,,Europe/Prague,0,
2:38:JDFS-2,,Chbany,,50.3326817,13.42949035,568,,0,,Europe/Prague,0,
2:38:JDFS-20,,"Soběsuky,,rozc.",,50.34492,13.4283266,568,,0,,Europe/Prague,0,
2:38:JDFS-21,,Vadkovice,,50.3400154,13.3852968,568,,0,,Europe/Prague,0,
2:38:JDFS-22,,"Vadkovice,,rozc.",,50.333374,13.3879929,568,,0,,Europe/Prague,0,
2:38:JDFS-23,,Vikletice,,50.34841345,13.4028811,568,,0,,Europe/Prague,0,
2:38:JDFS-24,,"Vikletice,,přehrada",,50.34644165,13.4160242,568,,0,,Europe/Prague,0,
2:38:JDFS-28,,"Žatec,,u plynárny",,50.3311224,13.55002115,901,,0,,Europe/Prague,0,
2:38:JDFS-29,,"Žatec,,VÚCh",,50.32420265,13.5266867,901,,0,,Europe/Prague,0,
2:38:JDFS-3,,"Chbany,,rozc.Chudeřín",,50.3332558,13.44686365,963,,0,,Europe/Prague,0,
2:38:JDFS-30,,"Žatec,,žel.st.",,50.3360144,13.5545435,901,,0,,Europe/Prague,0,
2:38:JDFS-31,,"Želina,,rozc.",,50.3610382,13.28605035,562,,0,,Europe/Prague,0,
2:38:JDFS-33,,"Chbany,Poláky,točna",,50.3360329,13.3544559,568,,0,,Europe/Prague,0,
2:38:JDFS-34,,"Rokle,Hradec,rozvodna",,50.3413391,13.323586,562,,0,,Europe/Prague,0,
2:38:JDFS-4,,"Kadaň,,aut.nádr.",,50.3802032,13.2761993,531,,0,,Europe/Prague,0,
2:38:JDFS-5,,"Kadaň,,Chomutovská sídl.B",,50.38900825,13.2722969,531,,0,,Europe/Prague,0,
2:38:JDFS-6,,"Kadaň,,koupaliště",,50.38447,13.2717128,531,,0,,Europe/Prague,0,
2:38:JDFS-7,,"Kadaň,,u mostu",,50.37576295,13.2745967,531,,0,,Europe/Prague,0,
2:38:JDFS-8,,Libočany,,50.33325005,13.51393175,961,,0,,Europe/Prague,0,
2:38:JDFS-9,,"Žatec,,Kadaňská",,50.32727815,13.518306,901,,0,,Europe/Prague,0,
2:39:JDFS-1,,Blov,,50.32543375,13.2949066,567,,0,,Europe/Prague,0,
2:39:JDFS-10,,"Podlesice,,školka",,50.28092,13.332984,565,,0,,Europe/Prague,0,
2:39:JDFS-11,,Radonice,,50.2979736,13.2872076,591,,0,,Europe/Prague,0,
2:39:JDFS-12,,"Radonice,,žel.st.",,50.298505,13.27862595,591,,0,,Europe/Prague,0,
2:39:JDFS-14,,Široké Třebčice,,50.2811152333333,13.3831552,565,,0,,Europe/Prague,0,
2:39:JDFS-15,,Veliká Ves,,50.2696037,13.3748379,"565,565",,0,,Europe/Prague,0,
2:39:JDFS-16,,Vilémov,,50.3016357,13.3135128,561,,0,,Europe/Prague,0,
2:39:JDFS-17,,Vinaře,,50.3319235,13.3138237,567,,0,,Europe/Prague,0,
2:39:JDFS-18,,Vintířov,,50.30468555,13.2734969,591,,0,,Europe/Prague,0,
2:39:JDFS-19,,Vitčice,,50.2836621666667,13.3410275666667,565,,0,,Europe/Prague,0,
2:39:JDFS-20,,"Krásný Dvůr,Vysoké Třebušice",,50.25633082,13.39638766,933,,0,,Europe/Prague,0,
2:39:JDFS-24,,"Rokle,Hradec",,50.3587952,13.3158188,562,,0,,Europe/Prague,0,
2:39:JDFS-4,,Krásný Dvůr,,50.2545331666667,13.3678595333333,933,,0,,Europe/Prague,0,
2:39:JDFS-5,,Miřetice u Vintířova,,50.31445725,13.28339575,591,,0,,Europe/Prague,0,
2:39:JDFS-6,,Nové Třebčice,,50.28161625,13.35405825,565,,0,,Europe/Prague,0,
2:39:JDFS-7,,"Podbořany,,aut.nádr.",,50.2236776333333,13.4068581,931,,0,,Europe/Prague,0,
2:39:JDFS-8,,"Podbořany,,Žatecká",,50.2300243,13.4097471,931,,0,,Europe/Prague,0,
2:39:JDFS-9,,Podlesice,,50.28036725,13.3310647,565,,0,,Europe/Prague,0,
2:3:JDFS-1,,"Řehlovice,Dubice",,50.59444,14.01420355,116,,0,,Europe/Prague,0,
2:3:JDFS-10,,Řehlovice,,50.610311275,13.95407295,"112,112",,0,,Europe/Prague,0,
2:3:JDFS-11,,"Řehlovice,,Lány dolní",,50.61258,13.9597059666667,"112,112",,0,,Europe/Prague,0,
2:3:JDFS-12,,"Řehlovice,Stadice",,50.61656795,13.9694134,112,,0,,Europe/Prague,0,
2:3:JDFS-13,,"Řehlovice,Stadice,osada",,50.6217631,13.98889065,112,,0,,Europe/Prague,0,
2:3:JDFS-14,,"Ústí n.L.,,západní nádr.",,50.65912055,14.0303297,101,,0,,Europe/Prague,0,
2:3:JDFS-15,,"Ústí n.L.,,hl.nádr.",,50.659626,14.04371,101,,0,,Europe/Prague,0,
2:3:JDFS-16,,"Trmice,,Václavské nám.",,50.6429118,13.99428215,101,,0,,Europe/Prague,0,
2:3:JDFS-17,,"Trmice,,Globus",,50.65114885,14.00345235,101,,0,,Europe/Prague,0,
2:3:JDFS-18,,"Trmice,,stará škola",,50.6431118,13.9978646,101,,0,,Europe/Prague,0,
2:3:JDFS-19,,"Ústí n.L.,,Divadlo",,50.659789125,14.035587425,101,,0,,Europe/Prague,0,
2:3:JDFS-2,,"Řehlovice,Dubice,Dubičky",,50.590065,14.0217276,116,,0,,Europe/Prague,0,
2:3:JDFS-20,,"Ústí n.L.,,Nové Předlice",,50.656044,14.001699475,101,,0,,Europe/Prague,0,
2:3:JDFS-21,,"Trmice,,Bělský můstek",,50.6468368,14.0056024,101,,0,,Europe/Prague,0,
2:3:JDFS-22,,"Trmice,,Nová škola",,50.6449623,14.0047541,101,,0,,Europe/Prague,0,
2:3:JDFS-23,,"Trmice,,Za Humny",,50.64270855,14.00284765,101,,0,,Europe/Prague,0,
2:3:JDFS-24,,"Koštov,,obec",,50.63161465,13.99298715,101,,0,,Europe/Prague,0,
2:3:JDFS-25,,"Řehlovice,Brozánky",,50.6069324,13.9385642666667,112,,0,,Europe/Prague,0,
2:3:JDFS-26,,"Ústí n.L.,,Malá Hradební",,50.6581841,14.0397053,101,,0,,Europe/Prague,0,
2:3:JDFS-27,,"Ústí n.L.,,Pětidomí",,50.656515,14.01411485,101,,0,,Europe/Prague,0,
2:3:JDFS-3,,Habrovany,,50.5972531,13.9808731,115,,0,,Europe/Prague,0,
2:3:JDFS-4,,"Řehlovice,Stadice,Pelikánův mlýn",,50.60339105,13.96895695,112,,0,,Europe/Prague,0,
2:3:JDFS-5,,"Řehlovice,Habří",,50.6211967,13.94476,112,,0,,Europe/Prague,0,
2:3:JDFS-6,,"Řehlovice,Hliňany",,50.61598,13.9512596,"112,112",,0,,Europe/Prague,0,
2:3:JDFS-8,,"Koštov,,osada",,50.62606715,13.99498795,101,,0,,Europe/Prague,0,
2:3:JDFS-9,,"Řehlovice,Radejčín",,50.59050145,13.99553565,116,,0,,Europe/Prague,0,
2:40:JDFS-1,,"Černěves,,rozc.",,50.4551972,14.255608825,665,,0,,Europe/Prague,0,
2:40:JDFS-10,,"Litoměřice,,žel.st.nákl.nádr.",,50.5326577,14.15494875,601,,0,,Europe/Prague,0,
2:40:JDFS-11,,"Chodouny,Lounky",,50.4802173,14.2396697,666,,0,,Europe/Prague,0,
2:40:JDFS-12,,"Křešice,Nučnice",,50.5111764,14.2258315,672,,0,,Europe/Prague,0,
2:40:JDFS-13,,"Polepy,Okna",,50.50453665,14.23952575,671,,0,,Europe/Prague,0,
2:40:JDFS-14,,"Polepy,,rozc.",,50.504199675,14.25183345,671,,0,,Europe/Prague,0,
2:40:JDFS-19,,"Křešice,Třeboutice",,50.526413,14.1987457,672,,0,,Europe/Prague,0,
2:40:JDFS-2,,Chodouny,,50.4722652,14.25034045,666,,0,,Europe/Prague,0,
2:40:JDFS-20,,"Vědomice,,lesní školka",,50.45065,14.2574577,665,,0,,Europe/Prague,0,
2:40:JDFS-3,,Křešice,,50.5227441,14.215376625,672,,0,,Europe/Prague,0,
2:40:JDFS-4,,"Křešice,,záv.",,50.5159972,14.22309115,672,,0,,Europe/Prague,0,
2:40:JDFS-6,,"Litoměřice,,Na vinici",,50.53284665,14.17214345,601,,0,,Europe/Prague,0,
2:41:JDFS-1,,"Hříškov,Bedřichovice",,50.3034,13.88111755,885,,0,,Europe/Prague,0,
2:41:JDFS-10,,"Louny,,Pudlovská",,50.35130685,13.81021455,801,,0,,Europe/Prague,0,
2:41:JDFS-11,,"Louny,,ČSAD",,50.356041,13.7765975,801,,0,,Europe/Prague,0,
2:41:JDFS-12,,"Louny,,EPL",,50.35437,13.7619171,801,,0,,Europe/Prague,0,
2:41:JDFS-13,,"Louny,,EPL hl.vrát.",,50.35444,13.7646713,801,,0,,Europe/Prague,0,
2:41:JDFS-14,,Nová Ves,,50.28628,13.8432093,888,,0,,Europe/Prague,0,
2:41:JDFS-15,,Panenský Týnec,,50.2948904,13.9166886,886,,0,,Europe/Prague,0,
2:41:JDFS-16,,"Panenský Týnec,,škola",,50.29257145,13.91769215,886,,0,,Europe/Prague,0,
2:41:JDFS-17,,Postoloprty,,50.3596985333333,13.6971120666667,811,,0,,Europe/Prague,0,
2:41:JDFS-18,,"Postoloprty,Březno",,50.3530579,13.7143831,811,,0,,Europe/Prague,0,
2:41:JDFS-19,,"Postoloprty,,nákup.stř.",,50.360878,13.6969986,811,,0,,Europe/Prague,0,
2:41:JDFS-2,,Hříškov,,50.29150965,13.8620248,885,,0,,Europe/Prague,0,
2:41:JDFS-20,,Smolnice,,50.3089765,13.8494959,883,,0,,Europe/Prague,0,
2:41:JDFS-21,,"Smolnice,,rozc.",,50.321475475,13.8616392,883,,0,,Europe/Prague,0,
2:41:JDFS-22,,"Toužetín,Sulec",,50.3094844666667,13.8850587333333,884,,0,,Europe/Prague,0,
2:41:JDFS-23,,Žerotín,,50.2861671,13.9136772,887,,0,,Europe/Prague,0,
2:41:JDFS-24,,"Louny,,u cihelny",,50.345998,13.819149,801,,0,,Europe/Prague,0,
2:41:JDFS-26,,"Louny,,prům.zóna",,50.34237235,13.8192577,801,,0,,Europe/Prague,0,
2:41:JDFS-3,,"Hříškov,,škola",,50.2929497,13.8660175,885,,0,,Europe/Prague,0,
2:41:JDFS-4,,"Chlumčany,,motorest",,50.331783575,13.8406759,881,,0,,Europe/Prague,0,
2:41:JDFS-8,,"Louny,,Luna",,50.3570614,13.788857825,801,,0,,Europe/Prague,0,
2:41:JDFS-9,,"Louny,,poliklinika",,50.3497982,13.80647565,801,,0,,Europe/Prague,0,
2:42:JDFS-10,,"Česká Kamenice,Kerhartice",,50.765559,14.40278955,351,,0,,Europe/Prague,0,
2:42:JDFS-11,,"Česká Kamenice,Kerhartice,hl.sil.",,50.76777,14.4075599,351,,0,,Europe/Prague,0,
2:42:JDFS-12,,"Kunratice,,horní",,50.8198166,14.421916,352,,0,,Europe/Prague,0,
2:42:JDFS-13,,Kunratice,,50.8183746,14.4156828,352,,0,,Europe/Prague,0,
2:42:JDFS-14,,"Kunratice,Lipnice",,50.83541,14.4264669,352,,0,,Europe/Prague,0,
2:42:JDFS-15,,Markvartice,,50.78584095,14.3664594,355,,0,,Europe/Prague,0,
2:42:JDFS-16,,"Markvartice,,ObÚ",,50.7772919,14.3572956,355,,0,,Europe/Prague,0,
2:42:JDFS-17,,"Markvartice,,žel.st.",,50.77134515,14.3501859,355,,0,,Europe/Prague,0,
2:42:JDFS-18,,"Česká Kamenice,Pekelský Důl",,50.8122559,14.4114399,351,,0,,Europe/Prague,0,
2:42:JDFS-19,,"Kunratice,Studený",,50.845235,14.43681,352,,0,,Europe/Prague,0,
2:42:JDFS-2,,"Česká Kamenice,,5.května",,50.8014673,14.4135399,351,,0,,Europe/Prague,0,
2:42:JDFS-20,,"Veselé,,horní",,50.77403635,14.39316945,354,,0,,Europe/Prague,0,
2:42:JDFS-21,,"Veselé,,ObÚ",,50.78132105,14.37624775,354,,0,,Europe/Prague,0,
2:42:JDFS-22,,"Česká Kamenice,Dolní Kamenice,Děčínská",,50.7976326,14.405668,"-,351",,0,,Europe/Prague,0,
2:42:JDFS-23,,"Česká Kamenice,Kamenická Nová Víska",,50.79109575,14.3820066,"-,351",,0,,Europe/Prague,0,
2:42:JDFS-6,,"Horní Habartice,,ObÚ",,50.7622872,14.3407807,356,,0,,Europe/Prague,0,
2:42:JDFS-7,,"Česká Kamenice,Huníkov",,50.781325,14.4243884,351,,0,,Europe/Prague,0,
2:42:JDFS-8,,"Česká Kamenice,Huníkov,kult.dům",,50.78652145,14.42394165,351,,0,,Europe/Prague,0,
2:45:JDFS-11,,"Chlumec,,Stradov",,50.6937018,13.92177535,121,,0,,Europe/Prague,0,
2:45:JDFS-12,,"Chlumec,,Zalužanská",,50.696725,13.9331646,121,,0,,Europe/Prague,0,
2:45:JDFS-19,,"Přestanov,,U Pomníku",,50.6902275,13.910675,122,,0,,Europe/Prague,0,
2:45:JDFS-20,,"Krupka,Bohosudov,Komenského",,50.68441865,13.8805775,431,,0,,Europe/Prague,0,
2:45:JDFS-22,,"Krupka,Maršov,škola",,50.68543625,13.88492825,431,,0,,Europe/Prague,0,
2:45:JDFS-23,,"Krupka,Unčín,U Lípy",,50.686715,13.8969755,431,,0,,Europe/Prague,0,
2:45:JDFS-24,,"Krupka,Unčín,U parku",,50.685765,13.89185905,431,,0,,Europe/Prague,0,
2:46:JDFS-1,,"Povrly,Český Bukov",,50.7010345,14.1500425,141,,0,,Europe/Prague,0,
2:46:JDFS-10,,"Povrly,,koupaliště",,50.681312,14.1566486,141,,0,,Europe/Prague,0,
2:46:JDFS-11,,"Povrly,,ObÚ",,50.67271045,14.1604385,141,,0,,Europe/Prague,0,
2:46:JDFS-12,,"Povrly,,sídliště",,50.67723465,14.1586256,141,,0,,Europe/Prague,0,
2:46:JDFS-13,,"Povrly,,učiliště",,50.6701024,14.1531882,141,,0,,Europe/Prague,0,
2:46:JDFS-14,,"Povrly,Slavošov",,50.71700095,14.10350085,142,,0,,Europe/Prague,0,
2:46:JDFS-15,,"Povrly,Šachov,rozc.",,50.7053414,14.1463466,142,,0,,Europe/Prague,0,
2:46:JDFS-17,,"Ústí n.L.,Neštěmice,Květ",,50.6730178,14.105041,101,,0,,Europe/Prague,0,
2:46:JDFS-18,,"Ústí n.L.,,pivovar",,50.66582865,14.07666445,101,,0,,Europe/Prague,0,
2:46:JDFS-19,,"Povrly,,háj.",,50.68807355,14.1544461,141,,0,,Europe/Prague,0,
2:46:JDFS-2,,"Povrly,Lužec",,50.694105,14.1271267,142,,0,,Europe/Prague,0,
2:46:JDFS-3,,"Povrly,Lužec,U mlýna",,50.6953325,14.1387396,141,,0,,Europe/Prague,0,
2:46:JDFS-4,,"Povrly,Lysá,rozc.",,50.70864675,14.12740185,142,,0,,Europe/Prague,0,
2:46:JDFS-5,,"Povrly,Mírkov",,50.6944923,14.11468945,142,,0,,Europe/Prague,0,
2:46:JDFS-6,,"Povrly,Mírkov,samota",,50.7016296,14.11267515,142,,0,,Europe/Prague,0,
2:46:JDFS-7,,"Ústí n.L.,Mojžíř,sídl.",,50.68073655,14.1152997,101,,0,,Europe/Prague,0,
2:46:JDFS-8,,"Ústí n.L.,Mojžíř,Veselí",,50.67762375,14.12807545,101,,0,,Europe/Prague,0,
2:46:JDFS-9,,"Povrly,Neštědice",,50.669525,14.1447445,141,,0,,Europe/Prague,0,
2:47:JDFS-1,,Hora Sv.Šebestiána,,50.510704,13.2514439,524,,0,,Europe/Prague,0,
2:47:JDFS-11,,"Křimov,Krásná Lípa",,50.48349955,13.3594685,521,,0,,Europe/Prague,0,
2:47:JDFS-12,,"Křimov,Domina,žel.st.",,50.4833298,13.3513422,521,,0,,Europe/Prague,0,
2:47:JDFS-13,,"Křimov,Domina",,50.48275225,13.34240105,521,,0,,Europe/Prague,0,
2:47:JDFS-14,,"Křimov,Suchdol,rozc.",,50.484149,13.3159461,521,,0,,Europe/Prague,0,
2:47:JDFS-15,,"Hora Sv.Šebestiána,Nová Ves",,50.499865,13.26333665,524,,0,,Europe/Prague,0,
2:47:JDFS-16,,"Křimov,Strážky",,50.48166605,13.3302102,521,,0,,Europe/Prague,0,
2:47:JDFS-18,,"Chomutov,Lipská II",,50.4680939,13.3937149,501,,0,,Europe/Prague,0,
2:47:JDFS-19,,"Hora Sv.Šebestiána,CLO",,,,-,,0,,Europe/Prague,0,
2:47:JDFS-20,,"Marienberg,Neues Haus",,50.5947647,13.1808865,26,,0,,Europe/Prague,0,
2:47:JDFS-21,,"Reitzenhain,Kfz-Werkstatt",,50.5651131,13.2195015,33,,0,,Europe/Prague,0,
2:47:JDFS-22,,"Marienberg,Reitzenhainer Str.",,50.6482773,13.1600809,26,,0,,Europe/Prague,0,
2:47:JDFS-3,,Křimov,,50.4901581,13.2756376,521,,0,,Europe/Prague,0,
2:47:JDFS-4,,"Křimov,nádr.",,50.49089,13.27716495,521,,0,,Europe/Prague,0,
2:47:JDFS-5,,"Křimov,nádr.rozc.",,50.48883435,13.2814584,521,,0,,Europe/Prague,0,
2:47:JDFS-6,,"Marienberg,Markt",,50.65129,13.1635981,26,,0,,Europe/Prague,0,
2:47:JDFS-7,,"Reitzenhain,ZOLL",,,,-,,0,,Europe/Prague,0,
2:47:JDFS-8,,"Reitzenhain,Wendeschleife",,50.55746,13.2188959,33,,0,,Europe/Prague,0,
2:48:JDFS-1,,Červený Hrádek,,50.511805,13.4500008,511,,0,,Europe/Prague,0,
2:48:JDFS-10,,"Jirkov,,osada",,50.50662,13.4464221,511,,0,,Europe/Prague,0,
2:48:JDFS-11,,"Jirkov,,školky",,50.50961875,13.4613037,511,,0,,Europe/Prague,0,
2:48:JDFS-12,,Komořany,,50.52657,13.5716934,211,,0,,Europe/Prague,0,
2:48:JDFS-17,,Vysoká Pec,,50.52056,13.4698048,571,,0,,Europe/Prague,0,
2:48:JDFS-18,,"Záluží,,CHEMOPETROL",,50.5596466,13.6014757,211,,0,,Europe/Prague,0,
2:48:JDFS-2,,Drmaly,,50.5225177,13.45812605,571,,0,,Europe/Prague,0,
2:48:JDFS-20,,"Janov,,konečná",,50.5887032,13.564002,221,,0,,Europe/Prague,0,
2:48:JDFS-21,,"Chomutov,,Zoopark",,50.4775824,13.42006,501,,0,,Europe/Prague,0,
2:48:JDFS-6,,"Chomutov,,Lesopark u lávky",,50.4746829,13.4149046,501,,0,,Europe/Prague,0,
2:48:JDFS-7,,"Chomutov,,Písečná I-13",,50.48679625,13.4438566,501,,0,,Europe/Prague,0,
2:4:JDFS-1,,Bříza,,50.3603191,14.21672155,691,,0,,Europe/Prague,0,
2:4:JDFS-10,,"Roudnice n.L.,Podlusky,Zahradní",,50.42382835,14.23129045,661,,0,,Europe/Prague,0,
2:4:JDFS-11,,"Roudnice n.L.,Podlusky,9.května",,50.42108385,14.2265358,661,,0,,Europe/Prague,0,
2:4:JDFS-12,,Račiněves,,50.3748856,14.2193241,688,,0,,Europe/Prague,0,
2:4:JDFS-13,,"Račiněves,,Motorest rozc.",,50.3896825,14.2245541,688,,0,,Europe/Prague,0,
2:4:JDFS-14,,"Roudnice n.L.,,aut.nádr.",,50.4244209555556,14.2606074,661,,0,,Europe/Prague,0,
2:4:JDFS-15,,"Roudnice n.L.,,Čihadla",,50.419415675,14.2659402,661,,0,,Europe/Prague,0,
2:4:JDFS-16,,"Roudnice n.L.,,Purkyňovo nám.",,50.422811725,14.254749075,661,,0,,Europe/Prague,0,
2:4:JDFS-17,,"Roudnice n.L.,,sídliště",,50.424272125,14.243522075,661,,0,,Europe/Prague,0,
2:4:JDFS-18,,"Roudnice n.L.,,nemocnice",,50.42361225,14.24777485,661,,0,,Europe/Prague,0,
2:4:JDFS-19,,"Krabčice,Rovné,rozc.1.0",,50.4021835,14.3036642,685,,0,,Europe/Prague,0,
2:4:JDFS-2,,Ctiněves,,50.376973225,14.307230125,694,,0,,Europe/Prague,0,
2:4:JDFS-20,,Straškov-Vodochody,,50.36401,14.2512445,693,,0,,Europe/Prague,0,
2:4:JDFS-21,,"Straškov-Vodochody,,škola",,50.3618164,14.2468138,693,,0,,Europe/Prague,0,
2:4:JDFS-22,,"Straškov-Vodochody,,žel.st.",,50.362175,14.2438402,693,,0,,Europe/Prague,0,
2:4:JDFS-23,,"Krabčice,Vesce,rozc.1.0",,50.41086835,14.288481725,685,,0,,Europe/Prague,0,
2:4:JDFS-24,,Vražkov,,50.3698646,14.266506675,687,,0,,Europe/Prague,0,
2:4:JDFS-25,,"Přestavlky,,rozc.1.0",,50.4054031,14.2113385,772,,0,,Europe/Prague,0,
2:4:JDFS-26,,"Roudnice n.L.,,Na Kolečku",,50.4251278,14.2376628,661,,0,,Europe/Prague,0,
2:4:JDFS-27,,"Račiněves,,otočka",,50.3739357,14.2169352,688,,0,,Europe/Prague,0,
2:4:JDFS-28,,"Horní Beřkovice,,točna",,50.3552475,14.3625784,698,,0,,Europe/Prague,0,
2:4:JDFS-3,,"Ctiněves,,žel.st.",,50.37784195,14.30602265,694,,0,,Europe/Prague,0,
2:4:JDFS-4,,Černouček,,50.3611512,14.30734084,695,,0,,Europe/Prague,0,
2:4:JDFS-5,,"Dušníky,,čerp.st.",,50.4162179,14.20311455,773,,0,,Europe/Prague,0,
2:4:JDFS-6,,"Horní Beřkovice,,ObÚ",,50.3594437,14.3458223,698,,0,,Europe/Prague,0,
2:4:JDFS-7,,"Horní Beřkovice,,žel.st.",,50.3567915,14.354044,698,,0,,Europe/Prague,0,
2:4:JDFS-8,,Krabčice,,50.4053135,14.301514375,685,,0,,Europe/Prague,0,
2:4:JDFS-9,,Mnetěš,,,,696,,0,,Europe/Prague,0,
2:50:JDFS-11,,"Staňkovice,,Triangle-jih",,50.37098,13.5794582,917,,0,,Europe/Prague,0,
2:50:JDFS-12,,"Velemyšleves,,Triangle-sever",,50.37889165,13.5757165,917,,0,,Europe/Prague,0,
2:50:JDFS-13,,"Bitozeves,,Triangle-východ",,50.3696861,13.6096268,917,,0,,Europe/Prague,0,
2:50:JDFS-14,,"Velemyšleves,,Triangle-sever II",,50.37889165,13.5757165,917,,0,,Europe/Prague,0,
2:50:JDFS-15,,"Velemyšleves,,Triangle-západ",,50.3752441,13.566781,917,,0,,Europe/Prague,0,
2:50:JDFS-16,,"Bitozeves,,Triangle-sever III",,50.3752084,13.59744835,917,,0,,Europe/Prague,0,
2:50:JDFS-2,,"Žatec,,Červený hrádek",,50.31754305,13.53681375,901,,0,,Europe/Prague,0,
2:50:JDFS-3,,"Žatec,,Mostecká",,50.33711625,13.54417515,901,,0,,Europe/Prague,0,
2:50:JDFS-7,,Žiželice,,50.3659557666667,13.5412152666667,911,,0,,Europe/Prague,0,
2:50:JDFS-8,,"Žatec,,Stavbařů",,50.31532,13.5406551,901,,0,,Europe/Prague,0,
2:50:JDFS-9,,"Žatec,Velichov",,50.350795,13.54632045,901,,0,,Europe/Prague,0,
2:52:JDFS-1,,"Úštěk,Lukov",,50.6035042,14.3689318,631,,0,,Europe/Prague,0,
2:52:JDFS-5,,"Úštěk,Lukov,hl.sil.",,50.600938,14.3687048,631,,0,,Europe/Prague,0,
2:53:JDFS-1,,"Liběšice,Dobříčany",,50.3041153,13.6061621,844,,0,,Europe/Prague,0,
2:53:JDFS-10,,Liběšice,,50.294754,13.6219292,844,,0,,Europe/Prague,0,
2:53:JDFS-11,,"Liběšice,Líčkov",,50.2762624,13.62656785,844,,0,,Europe/Prague,0,
2:53:JDFS-12,,"Mutějovice,,K Nádraží",,50.21664,13.7124557,832,,0,,Europe/Prague,0,
2:53:JDFS-13,,"Mutějovice,Lhota p.Džbánem",,50.2181778,13.7317333,831,,0,,Europe/Prague,0,
2:53:JDFS-14,,"Tuchořice,Nečemice",,50.2413979,13.6400652,839,,0,,Europe/Prague,0,
2:53:JDFS-15,,"Tuchořice,Nečemice,osada",,50.2483063,13.6481209,839,,0,,Europe/Prague,0,
2:53:JDFS-16,,Pnětluky,,50.2501526,13.70442,833,,0,,Europe/Prague,0,
2:53:JDFS-17,,"Pnětluky,,háj.",,50.2405853,13.7008076,833,,0,,Europe/Prague,0,
2:53:JDFS-18,,"Žatec,Trnovany",,50.3157138666667,13.6005395333333,901,,0,,Europe/Prague,0,
2:53:JDFS-19,,"Tuchořice,Třeskonice",,50.2648894,13.6507296,839,,0,,Europe/Prague,0,
2:53:JDFS-2,,"Liběšice,Dobříčany,rozc.",,50.3095935,13.6082193,844,,0,,Europe/Prague,0,
2:53:JDFS-20,,"Tuchořice,Třeskonice,háj.",,50.2648894,13.6507296,839,,0,,Europe/Prague,0,
2:53:JDFS-21,,"Tuchořice,Třeskonice,výhledy",,50.25192,13.6504335,839,,0,,Europe/Prague,0,
2:53:JDFS-23,,"Žatec,,u hřbitova",,50.3252625,13.55618175,901,,0,,Europe/Prague,0,
2:53:JDFS-24,,"Kounov,,rozc.háj.",,50.2210159,13.6609669,832,,0,,Europe/Prague,0,
2:53:JDFS-25,,"Liběšice,Líčkov,Školní",,50.27741275,13.6233163,844,,0,,Europe/Prague,0,
2:53:JDFS-3,,Domoušice,,50.233585625,13.7258847,831,,0,,Europe/Prague,0,
2:53:JDFS-4,,"Domoušice,,Filipov",,50.229835,13.7332983,831,,0,,Europe/Prague,0,
2:53:JDFS-5,,"Domoušice,,žel.st.",,50.2335739,13.72250935,831,,0,,Europe/Prague,0,
2:53:JDFS-6,,"Liběšice,Kluček",,50.2834318,13.6022453,844,,0,,Europe/Prague,0,
2:53:JDFS-7,,Kounov,,50.2161522,13.6653738,832,,0,,Europe/Prague,0,
2:53:JDFS-8,,"Kounov,,rozc.",,50.2145653,13.6658678,832,,0,,Europe/Prague,0,
2:53:JDFS-9,,"Kounov,,škola",,50.213604,13.672123,832,,0,,Europe/Prague,0,
2:54:JDFS-1,,"Krupka,,stadion",,50.6771088,13.86902765,431,,0,,Europe/Prague,0,
2:54:JDFS-12,,"Teplice,Sobědruhy",,50.662609475,13.85520815,401,,0,,Europe/Prague,0,
2:54:JDFS-13,,"Teplice,Sobědruhy,nám.",,50.662609475,13.85520815,401,,0,,Europe/Prague,0,
2:54:JDFS-16,,"Teplice,,U Vlastního krbu",,50.64897,13.8359985,401,,0,,Europe/Prague,0,
2:54:JDFS-2,,"Teplice,Trnovany,Pluto",,50.653891325,13.84513235,401,,0,,Europe/Prague,0,
2:54:JDFS-3,,"Teplice,Trnovany,Bohosudovská",,50.6574745,13.8474493,401,,0,,Europe/Prague,0,
2:56:JDFS-12,,"Štětí,,Ostrovní",,50.44982525,14.3771014,651,,0,,Europe/Prague,0,
2:56:JDFS-13,,"Štětí,,Okružní",,50.45251085,14.38345735,651,,0,,Europe/Prague,0,
2:56:JDFS-14,,"Štětí,,Stračenská",,50.452198,14.388834,651,,0,,Europe/Prague,0,
2:56:JDFS-2,,"Štětí,Stračí",,50.449707,14.4015532,651,,0,,Europe/Prague,0,
2:56:JDFS-4,,"Štětí,,hotelový dům",,50.456126225,14.38274525,"651,651",,0,,Europe/Prague,0,
2:56:JDFS-6,,"Štětí,,sídliště",,50.44980675,14.3796289,651,,0,,Europe/Prague,0,
2:56:JDFS-9,,"Štětí,,žel.st.",,50.45644,14.3936033,651,,0,,Europe/Prague,0,
2:57:JDFS-1,,Čížkovice,,50.4832493333333,14.0332955,711,,0,,Europe/Prague,0,
2:57:JDFS-10,,"Lovosice,,Centrum kultury Lovoš",,50.5122,14.053731,701,,0,,Europe/Prague,0,
2:57:JDFS-11,,"Lovosice,,kostel",,50.51356,14.0541391,701,,0,,Europe/Prague,0,
2:57:JDFS-12,,"Lovosice,,radnice",,50.5159718,14.04955435,701,,0,,Europe/Prague,0,
2:57:JDFS-13,,"Děčany,Lukohořany",,50.43612,13.93427,753,,0,,Europe/Prague,0,
2:57:JDFS-14,,"Děčany,Solany",,50.45248415,13.91872165,753,,0,,Europe/Prague,0,
2:57:JDFS-15,,"Třebívlice,Staré",,50.4809265,13.8949442,752,,0,,Europe/Prague,0,
2:57:JDFS-16,,"Třebívlice,Staré,háj.",,50.490303,13.8912363,752,,0,,Europe/Prague,0,
2:57:JDFS-17,,Sulejovice,,50.49996546,14.03433914,715,,0,,Europe/Prague,0,
2:57:JDFS-18,,"Třebívlice,Šepetely,cesta",,50.4689426,13.8959041,751,,0,,Europe/Prague,0,
2:57:JDFS-19,,"Třebenice,,váha",,50.47703745,13.9948888,731,,0,,Europe/Prague,0,
2:57:JDFS-2,,"Čížkovice,,hl.sil.",,50.4892777,14.02132985,711,,0,,Europe/Prague,0,
2:57:JDFS-20,,"Třebívlice,,nám.",,50.4579773,13.8988953,751,,0,,Europe/Prague,0,
2:57:JDFS-21,,"Třebívlice,Skalice",,50.4963341,13.8862209,752,,0,,Europe/Prague,0,
2:57:JDFS-22,,Úpohlavy,,50.4635073333333,14.0361976666667,717,,0,,Europe/Prague,0,
2:57:JDFS-23,,"Úpohlavy,,host.",,50.4622955,14.03423215,717,,0,,Europe/Prague,0,
2:57:JDFS-24,,"Čížkovice,Želechovice",,50.47549285,14.0414748,711,,0,,Europe/Prague,0,
2:57:JDFS-25,,"Čížkovice,Želechovice,obora",,50.4690094,14.04158735,711,,0,,Europe/Prague,0,
2:57:JDFS-26,,Sedlec,,50.45087,14.0154943,738,,0,,Europe/Prague,0,
2:57:JDFS-27,,"Lovosice,,Průmyslová",,50.5100822,14.0421419,701,,0,,Europe/Prague,0,
2:57:JDFS-3,,Děčany,,50.43798285,13.90782735,753,,0,,Europe/Prague,0,
2:57:JDFS-4,,"Děčany,,rozc.0.5",,50.443307825,13.912137725,"753,753",,0,,Europe/Prague,0,
2:57:JDFS-5,,Jenčice,,50.4815693,14.0046239,732,,0,,Europe/Prague,0,
2:57:JDFS-6,,Klapý,,50.4342437,14.004189,724,,0,,Europe/Prague,0,
2:57:JDFS-7,,"Třebívlice,Leská",,50.47898,13.8848934,752,,0,,Europe/Prague,0,
2:57:JDFS-8,,Lkáň,,50.44262505,13.971745,737,,0,,Europe/Prague,0,
2:57:JDFS-9,,"Lovosice,,aut.nádr.",,50.5106945833333,14.0601887666667,701,,0,,Europe/Prague,0,
2:58:JDFS-11,,Siřejovice,,50.479579,14.07068925,716,,0,,Europe/Prague,0,
2:58:JDFS-12,,Vrbičany,,50.46383,14.0842094,712,,0,,Europe/Prague,0,
2:58:JDFS-9,,"Lovosice,,záv.1",,50.50972685,14.076777,701,,0,,Europe/Prague,0,
2:59:JDFS-10,,"Heřmanov,,u Záhorků",,50.73143145,14.29523945,338,,0,,Europe/Prague,0,
2:59:JDFS-11,,"Heřmanov,,u školy",,50.7284641,14.29042785,338,,0,,Europe/Prague,0,
2:59:JDFS-12,,"Heřmanov,Blankartice,dol.",,50.6992391,14.2992283333333,"338,338",,0,,Europe/Prague,0,
2:59:JDFS-15,,"Heřmanov,,odb.Mlatce",,50.73292,14.3047018,338,,0,,Europe/Prague,0,
2:59:JDFS-3,,"Heřmanov,Blankartice",,50.7010727,14.2999172,338,,0,,Europe/Prague,0,
2:59:JDFS-4,,"Heřmanov,Fojtovice,dol.",,50.7192898,14.2748985,338,,0,,Europe/Prague,0,
2:59:JDFS-5,,"Heřmanov,Fojtovice,host.",,50.7151862,14.27183245,338,,0,,Europe/Prague,0,
2:59:JDFS-6,,"Heřmanov,Fojtovice,konečná",,50.70944,14.264205,338,,0,,Europe/Prague,0,
2:59:JDFS-7,,"Heřmanov,,obuv",,50.72207675,14.2804918,338,,0,,Europe/Prague,0,
2:59:JDFS-8,,"Heřmanov,,rozc.Blankartice",,50.72708,14.2908392,"338,338",,0,,Europe/Prague,0,
2:59:JDFS-9,,"Heřmanov,,u Ciasků",,50.723325,14.2863941,338,,0,,Europe/Prague,0,
2:5:JDFS-1,,Arnoltice,,50.8367691,14.26380605,325,,0,,Europe/Prague,0,
2:5:JDFS-10,,"Janská,Drůbežárna",,50.80379745,14.3731033,357,,0,,Europe/Prague,0,
2:5:JDFS-11,,"Janská,odb.VÚ",,50.80115125,14.40148085,351,,0,,Europe/Prague,0,
2:5:JDFS-12,,"Janská,prodejna",,50.80401245,14.3699193,357,,0,,Europe/Prague,0,
2:5:JDFS-13,,"Janská,u Bednářů",,50.8045292,14.381772,357,,0,,Europe/Prague,0,
2:5:JDFS-14,,Labská Stráň,,50.84874,14.231966,328,,0,,Europe/Prague,0,
2:5:JDFS-15,,"Arnoltice,u Pajonků",,50.8485794,14.2376294,328,,0,,Europe/Prague,0,
2:5:JDFS-16,,"Růžová,I",,50.8430269,14.2929945,326,,0,,Europe/Prague,0,
2:5:JDFS-17,,"Růžová,II",,50.8472814,14.2901597,326,,0,,Europe/Prague,0,
2:5:JDFS-18,,"Srbská Kamenice,křiž.",,50.8140488,14.3505624,343,,0,,Europe/Prague,0,
2:5:JDFS-19,,"Česká Kamenice,Benar",,50.8000793,14.40777015,351,,0,,Europe/Prague,0,
2:5:JDFS-2,,"Růžová,Nový Svět",,50.83171805,14.2836871,326,,0,,Europe/Prague,0,
2:5:JDFS-20,,"Česká Kamenice,žel.st.",,50.79616,14.4152927,351,,0,,Europe/Prague,0,
2:5:JDFS-21,,"Schmilka,Grenzübergang",,50.8895226,14.232892,-  ,,0,,Europe/Prague,0,
2:5:JDFS-22,,"Růžová,samota",,50.83494715,14.2881217,326,,0,,Europe/Prague,0,
2:5:JDFS-23,,"Hřensko,přívoz",,50.8755175,14.2368827,321,,0,,Europe/Prague,0,
2:5:JDFS-3,,"Bynovec,hřiště",,50.8242705333333,14.2635787666667,324,,0,,Europe/Prague,0,
2:5:JDFS-4,,"Česká Kamenice,Pražská",,50.79966,14.4205475,351,,0,,Europe/Prague,0,
2:5:JDFS-5,,"Hřensko,střed",,50.87410925,14.2427673,321,,0,,Europe/Prague,0,
2:5:JDFS-6,,Janov,,50.8594856,14.2658987,327,,0,,Europe/Prague,0,
2:5:JDFS-7,,"Janov,Na hájenkách",,50.8539429,14.2888944,327,,0,,Europe/Prague,0,
2:5:JDFS-8,,"Janov,u Myškovských",,50.856907,14.2684965,327,,0,,Europe/Prague,0,
2:5:JDFS-9,,"Janská,bytovky",,50.807436,14.3602786,357,,0,,Europe/Prague,0,
2:60:JDFS-1,,Cítoliby,,50.3341999,13.8114734,824,,0,,Europe/Prague,0,
2:60:JDFS-10,,"Louny,,Praga",,50.35964965,13.8161373,801,,0,,Europe/Prague,0,
2:60:JDFS-11,,"Louny,,žel.st.",,50.3609543,13.8233891,801,,0,,Europe/Prague,0,
2:60:JDFS-12,,Martiněves,,50.3713925,14.15237475,779,,0,,Europe/Prague,0,
2:60:JDFS-13,,"Mšené-lázně,,u kapličky",,50.36384015,14.12297675,776,,0,,Europe/Prague,0,
2:60:JDFS-14,,"Mšené-lázně,,lázně",,50.3629837,14.132400275,776,,0,,Europe/Prague,0,
2:60:JDFS-15,,Peruc,,50.337954,13.959469,871,,0,,Europe/Prague,0,
2:60:JDFS-18,,"Martiněves,Radešín",,50.34089,14.1455431,779,,0,,Europe/Prague,0,
2:60:JDFS-2,,"Peruc,Černochov",,50.3531128,14.02606675,871,,0,,Europe/Prague,0,
2:60:JDFS-22,,"Roudnice n.L.,,letiště",,50.40832715,14.2386465,661,,0,,Europe/Prague,0,
2:60:JDFS-23,,"Roudnice n.L.,,Špindlerova tř.",,50.41973495,14.25149155,661,,0,,Europe/Prague,0,
2:60:JDFS-24,,"Mšené-lázně,Ředhošť",,50.3529472,14.0785656,777,,0,,Europe/Prague,0,
2:60:JDFS-26,,Toužetín,,50.31414605,13.88649465,884,,0,,Europe/Prague,0,
2:60:JDFS-27,,"Mšené-lázně,Vrbice,Podolí",,50.3583889,14.1154046,776,,0,,Europe/Prague,0,
2:60:JDFS-28,,Vrbno n.Lesy,,50.3238878666667,13.9066211,874,,0,,Europe/Prague,0,
2:60:JDFS-29,,"Vrbno n.Lesy,,žel.st.",,50.324615,13.90908625,874,,0,,Europe/Prague,0,
2:60:JDFS-3,,"Toužetín,Donín",,50.3174322,13.89410815,884,,0,,Europe/Prague,0,
2:60:JDFS-4,,"Peruc,Hřivčice",,50.3331335,13.9174447,871,,0,,Europe/Prague,0,
2:60:JDFS-5,,"Martiněves,Charvatce",,50.3618229666667,14.1478166666667,"779,779",,0,,Europe/Prague,0,
2:60:JDFS-7,,"Mšené-lázně,Ječovice",,50.35362835,14.05243205,777,,0,,Europe/Prague,0,
2:60:JDFS-9,,"Louny,,U spravedlnosti",,50.348446725,13.805940875,801,,0,,Europe/Prague,0,
2:61:JDFS-1,,"Čížkovice,,cementárna",,50.48847,14.0413551,711,,0,,Europe/Prague,0,
2:64:JDFS-1,,Černčice,,50.3612716,13.8441663,861,,0,,Europe/Prague,0,
2:64:JDFS-14,,"Děčany,Lukohořany,rozc.",,50.4373716,13.92155555,753,,0,,Europe/Prague,0,
2:64:JDFS-15,,Obora,,50.37317,13.8629112,864,,0,,Europe/Prague,0,
2:64:JDFS-16,,"Obora,,Tranzitní plynovod",,50.36652,13.8544788,864,,0,,Europe/Prague,0,
2:64:JDFS-17,,"Počedělice,Orasice",,50.38559,13.9032145,865,,0,,Europe/Prague,0,
2:64:JDFS-18,,Počedělice,,50.3718147,13.8874531,865,,0,,Europe/Prague,0,
2:64:JDFS-19,,"Libčeves,Řisuty",,50.47296,13.859313,851,,0,,Europe/Prague,0,
2:64:JDFS-2,,"Černčice,,Prefa",,50.3635984,13.850192,861,,0,,Europe/Prague,0,
2:64:JDFS-20,,"Třebívlice,Šepetely,rozc.0.5",,50.464489,13.89106465,751,,0,,Europe/Prague,0,
2:64:JDFS-22,,"Koštice,Vojnice",,50.4224243,13.94234415,866,,0,,Europe/Prague,0,
2:64:JDFS-23,,"Koštice,Vojničky",,50.4283371,13.93021725,866,,0,,Europe/Prague,0,
2:64:JDFS-24,,"Počedělice,Volenice",,50.39112,13.931447,865,,0,,Europe/Prague,0,
2:64:JDFS-25,,Želkovice,,50.4644165,13.8767352,858,,0,,Europe/Prague,0,
2:64:JDFS-3,,"Černčice,,škola",,50.36043175,13.84868195,861,,0,,Europe/Prague,0,
2:64:JDFS-5,,Koštice,,50.40420915,13.9415331,866,,0,,Europe/Prague,0,
2:64:JDFS-6,,"Koštice,,samota",,50.4093,13.9394611,866,,0,,Europe/Prague,0,
2:64:JDFS-9,,"Černčice,,nad pivovarem",,50.3601742,13.8319888,861,,0,,Europe/Prague,0,
2:65:JDFS-10,,"Voděrady,,rozc.0.6",,50.42017,13.5105972,583,,0,,Europe/Prague,0,
2:65:JDFS-11,,Všehrdy,,50.4190674,13.46061,581,,0,,Europe/Prague,0,
2:65:JDFS-12,,"Velemyšleves,Zálezly",,50.4069138,13.5513344,912,,0,,Europe/Prague,0,
2:65:JDFS-15,,Bílence,,50.4208182,13.50434015,583,,0,,Europe/Prague,0,
2:65:JDFS-16,,"Nezabylice,Hořenec",,50.42246,13.4832067,582,,0,,Europe/Prague,0,
2:65:JDFS-17,,"Chomutov,,Pražská",,50.4486351,13.42903185,501,,0,,Europe/Prague,0,
2:65:JDFS-3,,Nezabylice,,50.42272,13.4775953,582,,0,,Europe/Prague,0,
2:65:JDFS-4,,"Nezabylice,,Na seníku",,50.42327,13.4726543,"582,582",,0,,Europe/Prague,0,
2:65:JDFS-5,,Přečaply,,50.4311256,13.4728966,501,,0,,Europe/Prague,0,
2:65:JDFS-6,,"Přečaply,,starý cukrovar",,50.43591,13.4678116,501,,0,,Europe/Prague,0,
2:65:JDFS-7,,"Škrle,,rozc.1.0",,50.4110565,13.53272535,583,,0,,Europe/Prague,0,
2:65:JDFS-8,,"Údlice,,nám.",,50.4396553,13.4605494,501,,0,,Europe/Prague,0,
2:65:JDFS-9,,Velemyšleves,,50.4024,13.5635109,912,,0,,Europe/Prague,0,
2:66:JDFS-13,,"Peruc,Pátek",,50.37887,13.9368534,872,,0,,Europe/Prague,0,
2:66:JDFS-15,,"Peruc,,koupaliště",,50.349495,13.9580512,871,,0,,Europe/Prague,0,
2:66:JDFS-16,,"Peruc,Radonice n.Ohří",,50.3773346,13.920537,872,,0,,Europe/Prague,0,
2:66:JDFS-17,,Slavětín,,50.35,13.9065466,867,,0,,Europe/Prague,0,
2:66:JDFS-18,,"Peruc,Stradonice",,50.37338725,13.9583211,872,,0,,Europe/Prague,0,
2:66:JDFS-19,,"Peruc,Telce",,50.30984,13.9735136,873,,0,,Europe/Prague,0,
2:66:JDFS-20,,Veltěže,,50.3595352,13.8643951,868,,0,,Europe/Prague,0,
2:66:JDFS-22,,"Peruc,,žel.st.",,50.33601,13.9589968,871,,0,,Europe/Prague,0,
2:66:JDFS-3,,"Obora,,závod",,50.3587456,13.8576355,861,,0,,Europe/Prague,0,
2:66:JDFS-4,,"Slavětín,Kystra",,50.37362,13.9029245,867,,0,,Europe/Prague,0,
2:66:JDFS-5,,"Slavětín,Kystra,rozc.",,50.3687553,13.9121342,867,,0,,Europe/Prague,0,
2:67:JDFS-1,,"Polepy,Encovany,Dolní Encovany",,50.5241737,14.2453794,671,,0,,Europe/Prague,0,
2:67:JDFS-13,,"Polepy,,škola",,50.50786785,14.2654564,671,,0,,Europe/Prague,0,
2:67:JDFS-14,,"Polepy,,žel.st.",,50.5105169,14.2678938,671,,0,,Europe/Prague,0,
2:67:JDFS-21,,Vrutice,,50.50204,14.29023,655,,0,,Europe/Prague,0,
2:67:JDFS-22,,"Polepy,,u přejezdu",,50.5090656,14.27172755,671,,0,,Europe/Prague,0,
2:67:JDFS-3,,"Polepy,Encovany",,50.52885,14.2490807,671,,0,,Europe/Prague,0,
2:67:JDFS-4,,"Polepy,Hrušovany",,50.51911,14.277914,671,,0,,Europe/Prague,0,
2:67:JDFS-7,,"Křešice,,ústav",,50.5233955,14.233119,672,,0,,Europe/Prague,0,
2:68:JDFS-10,,"Bärenstein,Ortseingang",,50.50823,13.02688695,-  ,,0,,Europe/Prague,0,
2:68:JDFS-11,,"Bärenstein,Kühlberg,B 95",,50.5224209,13.03098655,-  ,,0,,Europe/Prague,0,
2:68:JDFS-12,,"Vejprty,CLO",,,,-  ,,0,,Europe/Prague,0,
2:68:JDFS-13,,"Cunersdorf,Gh Morgensonne",,50.5501926,13.0179758,-  ,,0,,Europe/Prague,0,
2:68:JDFS-2,,"Annaberg-Buchholz,Busbahnhof",,50.5838852,13.0092344,-  ,,0,,Europe/Prague,0,
2:68:JDFS-3,,"Annaberg-Buchholz,Turnhalle",,50.56586835,13.00828695,-  ,,0,,Europe/Prague,0,
2:68:JDFS-4,,"Annaberg-Buchholz,Bahnhofstr.",,50.5742836,13.002655,-  ,,0,,Europe/Prague,0,
2:68:JDFS-5,,"Annaberg-Buchholz,Unterer Bahnhof",,50.577271,12.999496,-  ,,0,,Europe/Prague,0,
2:68:JDFS-6,,"Annaberg-Buchholz,Gerisch Ruh",,50.5831416,13.00433685,-  ,,0,,Europe/Prague,0,
2:68:JDFS-7,,"Annaberg-Buchholz,RVE",,50.5845146,13.01281,-  ,,0,,Europe/Prague,0,
2:68:JDFS-8,,"Bärenstein,ZOLL",,,,-  ,,0,,Europe/Prague,0,
2:68:JDFS-9,,"Bärenstein,Turnhalle",,50.501945,13.02774575,-  ,,0,,Europe/Prague,0,
2:69:JDFS-1,,"Boží Dar,Klínovec,rozc.",,50.40241865,12.9512622,557,,0,,Europe/Prague,0,
2:69:JDFS-11,,"Vejprty,,předměstí",,50.48255345,13.02511165,551,,0,,Europe/Prague,0,
2:69:JDFS-12,,"Vejprty,Nové Zvolání",,50.466929425,13.020759825,551,,0,,Europe/Prague,0,
2:69:JDFS-13,,"Vejprty,Nové Zvolání,černý kříž",,50.464961,13.0362096,551,,0,,Europe/Prague,0,
2:69:JDFS-14,,"Vejprty,Nové Zvolání,KOVO",,50.466929425,13.020759825,551,,0,,Europe/Prague,0,
2:69:JDFS-15,,"Vejprty,,viadukt",,50.48322695,13.03188515,551,,0,,Europe/Prague,0,
2:69:JDFS-16,,"Boží Dar,,u kostela",,50.4091835,12.924809,557,,0,,Europe/Prague,0,
2:69:JDFS-17,,"Loučná,,MěÚ",,50.41959,12.98393295,556,,0,,Europe/Prague,0,
2:69:JDFS-18,,"Kovářská,,Dlouhá",,50.4487705,13.05824995,554,,0,,Europe/Prague,0,
2:69:JDFS-2,,"Loučná,České Hamry",,50.440170575,13.016372875,555,,0,,Europe/Prague,0,
2:69:JDFS-3,,"Loučná,České Hamry,Výsada",,50.4459119,13.02075625,555,,0,,Europe/Prague,0,
2:69:JDFS-4,,"Kovářská,,ObÚ",,50.43843185,13.0537119,554,,0,,Europe/Prague,0,
2:69:JDFS-5,,"Kovářská,,rozc.Elektropřístroj",,50.43493845,13.049758,554,,0,,Europe/Prague,0,
2:69:JDFS-6,,"Loučná,,háj.park.",,50.40422,12.98392775,556,,0,,Europe/Prague,0,
2:69:JDFS-7,,"Loučná,,Lesní zámeček",,50.4023186,12.97350835,556,,0,,Europe/Prague,0,
2:69:JDFS-8,,"Loučná,,rozc.1.0",,50.4145756,12.9899597,556,,0,,Europe/Prague,0,
2:69:JDFS-9,,"Loučná,Háj,záv.",,50.4276962,13.0023174,556,,0,,Europe/Prague,0,
2:6:JDFS-1,,Bořislav,,50.58016335,13.92861605,453,,0,,Europe/Prague,0,
2:6:JDFS-10,,"Teplice,,Pražská",,50.6392136,13.8361883,401,,0,,Europe/Prague,0,
2:6:JDFS-11,,"Teplice,Prosetice,plynárny",,50.63512685,13.8452234,401,,0,,Europe/Prague,0,
2:6:JDFS-12,,Žalany,,50.58842005,13.91066445,452,,0,,Europe/Prague,0,
2:6:JDFS-13,,"Žalany,,škola",,50.59301185,13.90643265,452,,0,,Europe/Prague,0,
2:6:JDFS-14,,Žim,,50.58483,13.9656,454,,0,,Europe/Prague,0,
2:6:JDFS-15,,"Proboštov,,škola",,50.66573525,13.83142995,421,,0,,Europe/Prague,0,
2:6:JDFS-16,,"Proboštov,,nám.",,50.66745,13.8345537,421,,0,,Europe/Prague,0,
2:6:JDFS-17,,"Rtyně n.Bílinou,,kostel",,,,451,,0,,Europe/Prague,0,
2:6:JDFS-18,,"Bystřany,,hřbitov",,50.6322632,13.8525047,401,,0,,Europe/Prague,0,
2:6:JDFS-19,,"Bystřany,,Máchovy sady",,50.6284027,13.8646851,458,,0,,Europe/Prague,0,
2:6:JDFS-2,,"Bořislav,,školka",,50.583515,13.936759,453,,0,,Europe/Prague,0,
2:6:JDFS-20,,"Bystřany,Nové Dvory",,50.6216888,13.8733921,458,,0,,Europe/Prague,0,
2:6:JDFS-21,,"Krupka,Bohosudov,MěÚ",,50.6723633,13.8789167,431,,0,,Europe/Prague,0,
2:6:JDFS-22,,"Krupka,,U plovárny",,50.6812401,13.86546085,431,,0,,Europe/Prague,0,
2:6:JDFS-23,,"Krupka,Vrchoslav,Hor.nám.",,50.68162815,13.8529613,431,,0,,Europe/Prague,0,
2:6:JDFS-24,,"Novosedlice,,škola",,50.66069,13.8236532,421,,0,,Europe/Prague,0,
2:6:JDFS-25,,"Novosedlice,,Míru",,50.6553574,13.8228607,421,,0,,Europe/Prague,0,
2:6:JDFS-26,,"Proboštov,Přítkov",,,,421,,0,,Europe/Prague,0,
2:6:JDFS-27,,Proboštov,,50.6613045,13.83822,421,,0,,Europe/Prague,0,
2:6:JDFS-28,,"Proboštov,,Přítkovská",,50.6688957,13.8377829,421,,0,,Europe/Prague,0,
2:6:JDFS-29,,"Proboštov,,teplárna",,50.6642265,13.8269157,421,,0,,Europe/Prague,0,
2:6:JDFS-3,,"Krupka,,škola",,50.6824385,13.85837345,431,,0,,Europe/Prague,0,
2:6:JDFS-30,,"Rtyně n.Bílinou,Malhostice",,50.6117249,13.9253645,451,,0,,Europe/Prague,0,
2:6:JDFS-31,,"Rtyně n.Bílinou,Sezemice",,50.6122665,13.9021006,451,,0,,Europe/Prague,0,
2:6:JDFS-32,,"Rtyně n.Bílinou,Velvěty",,50.6074807166667,13.8905743,"451,451",,0,,Europe/Prague,0,
2:6:JDFS-33,,"Rtyně n.Bílinou,Velvěty,Kozlíky",,50.61392202,13.8854804,451,,0,,Europe/Prague,0,
2:6:JDFS-34,,"Rtyně n.Bílinou,Velvěty,Kozlíky host.",,50.61392202,13.8854804,451,,0,,Europe/Prague,0,
2:6:JDFS-35,,"Rtyně n.Bílinou,Velvěty,záv.",,50.6074807166667,13.8905743,451,,0,,Europe/Prague,0,
2:6:JDFS-36,,"Teplice,,Hlavní nádraží",,50.64602,13.8291444,401,,0,,Europe/Prague,1,
2:6:JDFS-37,,"Teplice,,Hotel de Saxe",,50.64397,13.83005,401,,0,,Europe/Prague,1,
2:6:JDFS-38,,"Žalany,Lelov",,50.581445,13.9136109,452,,0,,Europe/Prague,0,
2:6:JDFS-4,,"Novosedlice,,pošta",,50.65775,13.8229561,421,,0,,Europe/Prague,0,
2:6:JDFS-40,,"Bořislav,,obchod",,50.581245,13.93117475,"453,453",,0,,Europe/Prague,0,
2:6:JDFS-41,,"Žim,,žel.zast.",,50.58793,13.9627385,454,,0,,Europe/Prague,0,
2:6:JDFS-5,,Rtyně n.Bílinou,,50.6008366666667,13.9113728333333,"451,451",,0,,Europe/Prague,0,
2:6:JDFS-7,,"Teplice,,divadlo",,50.64025295,13.82902905,401,,0,,Europe/Prague,0,
2:6:JDFS-8,,"Teplice,,Mánesovo nám.",,50.6456661,13.8239526,401,,0,,Europe/Prague,0,
2:6:JDFS-9,,"Teplice,,Novosedlická",,50.6476768,13.82110595,401,,0,,Europe/Prague,0,
2:70:JDFS-1,,"Osek,Dlouhá Louka",,50.6390457,13.6491756,443,,0,,Europe/Prague,0,
2:70:JDFS-10,,"Osek,,autokempink",,50.62270275,13.68695885,443,,0,,Europe/Prague,0,
2:70:JDFS-11,,"Litvínov,,prům.zóna",,50.5998211,13.6239605,221,,0,,Europe/Prague,0,
2:70:JDFS-2,,"Osek,Dlouhá Louka,háj.",,50.6390457,13.6491756,443,,0,,Europe/Prague,0,
2:70:JDFS-4,,"Litvínov,,Jiráskova",,50.5992165,13.61707595,221,,0,,Europe/Prague,0,
2:70:JDFS-5,,"Litvínov,,u hřbitova",,50.600745,13.6349837,221,,0,,Europe/Prague,0,
2:70:JDFS-6,,"Lom,,Červený kříž",,50.59685,13.65461,221,,0,,Europe/Prague,0,
2:70:JDFS-7,,"Lom,,nám.",,50.59409,13.6575089,221,,0,,Europe/Prague,0,
2:70:JDFS-8,,"Osek,,nám.",,50.6221334,13.6928833,443,,0,,Europe/Prague,0,
2:70:JDFS-9,,"Osek,,klášter",,50.62125395,13.69281625,443,,0,,Europe/Prague,0,
2:71:JDFS-12,,Měděnec,,50.42857,13.1295471,553,,0,,Europe/Prague,0,
2:71:JDFS-13,,"Měděnec,žel.st.",,50.4285237,13.13059805,553,,0,,Europe/Prague,0,
2:71:JDFS-14,,Výsluní,,50.4810944,13.21184,527,,0,,Europe/Prague,0,
2:71:JDFS-16,,"Kurort Oberwiesenthal,Am Bahnhof",,50.42126,12.9726095,271,,0,,Europe/Prague,0,
2:71:JDFS-17,,"Kurort Oberwiesenthal,Neues Haus",,50.41308,12.9391012,271,,0,,Europe/Prague,0,
2:71:JDFS-18,,"Kurort Oberwiesenthal,Hotel am Fichtelberg",,,,271,,0,,Europe/Prague,0,
2:71:JDFS-21,,"Chomutov,žel.zast.",,50.4689151333333,13.4145206,501,,0,,Europe/Prague,0,
2:71:JDFS-22,,"Kurort Oberwiesenthal,ZOLL",,,,x,,0,,Europe/Prague,0,
2:71:JDFS-23,,"Kurort Oberwiesenthal,Penzion Herberger",,50.41921,12.9674168,271,,0,,Europe/Prague,0,
2:71:JDFS-24,,"Kurort Oberwiesenthal,Markt",,50.4192963,12.9707432,271,,0,,Europe/Prague,0,
2:71:JDFS-25,,"Boží Dar,CLO",,50.4098473,12.9342308,x,,0,,Europe/Prague,0,
2:71:JDFS-3,,Horní Halže,,50.4158389,13.08361915,553,,0,,Europe/Prague,0,
2:72:JDFS-11,,"Blšany,Soběchleby,rozc.",,50.21615985,13.5127835,935,,0,,Europe/Prague,0,
2:72:JDFS-5,,"Blšany,Siřem",,50.2337118,13.5056534,937,,0,,Europe/Prague,0,
2:73:JDFS-1,,Čeradice,,50.30805775,13.49243165,962,,0,,Europe/Prague,0,
2:73:JDFS-10,,"Čeradice,Větrušice",,50.30372355,13.4598117,962,,0,,Europe/Prague,0,
2:73:JDFS-11,,"Čeradice,Větrušice,návrší",,50.30285,13.4641838,962,,0,,Europe/Prague,0,
2:73:JDFS-14,,"Žatec,,Čeradická",,50.31776,13.5259724,901,,0,,Europe/Prague,0,
2:73:JDFS-19,,"Vilémov,,Topolanský dvůr",,50.30416,13.34446305,561,,0,,Europe/Prague,0,
2:73:JDFS-2,,"Habartice,Háj",,50.28689955,13.24275635,591,,0,,Europe/Prague,0,
2:73:JDFS-21,,"Libědice,Čejkovice",,50.30721195,13.41793775,566,,0,,Europe/Prague,0,
2:73:JDFS-22,,"Vilémov,,rozc.",,50.30378915,13.32235005,561,,0,,Europe/Prague,0,
2:73:JDFS-3,,Kadaňský Rohozec,,50.2825317,13.2259416666667,591,,0,,Europe/Prague,0,
2:73:JDFS-4,,Libědice,,50.3166169,13.38369085,566,,0,,Europe/Prague,0,
2:73:JDFS-5,,Pětipsy,,50.3205439333333,13.3477635666667,563,,0,,Europe/Prague,0,
2:73:JDFS-6,,Račetice,,50.3056670666667,13.3657247166667,"564,564",,0,,Europe/Prague,0,
2:73:JDFS-9,,"Nové Sedlo,Sedčice",,50.311512,13.4424171,963,,0,,Europe/Prague,0,
2:74:JDFS-18,,"Chabařovice,,Besta",,50.68427,13.9237113,123,,0,,Europe/Prague,0,
2:74:JDFS-20,,"Teplice,,Olympia",,50.66169,13.8656874,401,,0,,Europe/Prague,1,
2:74:JDFS-27,,"Krupka,,sídliště",,50.6796193,13.8665529666667,431,,0,,Europe/Prague,0,
2:75:JDFS-10,,"Hrobčice,,školka",,50.51761055,13.78630785,473,,0,,Europe/Prague,0,
2:75:JDFS-12,,"Hrobčice,Chouč,rozc.",,50.5106065,13.77051545,473,,0,,Europe/Prague,0,
2:75:JDFS-15,,"Kostomlaty p.Milešovkou,,nám.",,50.5588951,13.8686223,456,,0,,Europe/Prague,0,
2:75:JDFS-16,,"Kostomlaty p.Milešovkou,,škola",,50.5603294,13.8641095,456,,0,,Europe/Prague,0,
2:75:JDFS-17,,"Hrobčice,Kučlín",,50.53200675,13.7965536,473,,0,,Europe/Prague,0,
2:75:JDFS-20,,"Lovosice,,Jabloňová álej",,50.51377105,14.04033335,701,,0,,Europe/Prague,0,
2:75:JDFS-23,,Měrunice,,50.4790039,13.8179579,475,,0,,Europe/Prague,0,
2:75:JDFS-25,,"Velemín,Milešov",,50.5395584,13.93817235,745,,0,,Europe/Prague,0,
2:75:JDFS-26,,"Hrobčice,Mirošovice,zámek",,50.5052223,13.7817469,473,,0,,Europe/Prague,0,
2:75:JDFS-27,,"Hrobčice,Mrzlice",,50.51240125,13.8119321,473,,0,,Europe/Prague,0,
2:75:JDFS-28,,"Hrobčice,Razice",,50.522121425,13.808994775,473,,0,,Europe/Prague,0,
2:75:JDFS-29,,"Světec,,Kostomlatská",,50.5723343,13.8156652,486,,0,,Europe/Prague,0,
2:75:JDFS-30,,"Světec,,Zámecká zahrada",,50.5780373,13.8080959,486,,0,,Europe/Prague,0,
2:75:JDFS-31,,"Světec,,záv.",,50.5739746,13.8055458,486,,0,,Europe/Prague,0,
2:75:JDFS-32,,"Světec,Štrbice",,50.5638962,13.8417311,486,,0,,Europe/Prague,0,
2:75:JDFS-33,,"Hrobčice,Tvrdín",,50.50322915,13.803153,473,,0,,Europe/Prague,0,
2:75:JDFS-34,,Velemín,,50.538094625,13.977757725,741,,0,,Europe/Prague,0,
2:75:JDFS-35,,"Velemín,Milešov,Mlýnce rozc.0.5",,50.538559,13.94971515,745,,0,,Europe/Prague,0,
2:75:JDFS-36,,"Velemín,,škola",,50.54211285,13.9775038,741,,0,,Europe/Prague,0,
2:75:JDFS-37,,Vchynice,,50.51031655,14.0182133,743,,0,,Europe/Prague,0,
2:75:JDFS-38,,"Vchynice,,rozc.",,50.51579855,14.02514505,743,,0,,Europe/Prague,0,
2:75:JDFS-39,,"Vchynice,,škola",,50.51262,14.0227032,743,,0,,Europe/Prague,0,
2:75:JDFS-40,,"Měrunice,Žichov",,50.479435,13.7905922,475,,0,,Europe/Prague,0,
2:75:JDFS-41,,"Bílina,,PP II škola",,50.5424423,13.7769947,461,,0,,Europe/Prague,0,
2:75:JDFS-44,,"Velemín,,Milešovská",,50.53705225,13.9776964,741,,0,,Europe/Prague,0,
2:75:JDFS-45,,"Velemín,Režný Újezd,kaplička",,50.51837815,13.99438955,742,,0,,Europe/Prague,0,
2:75:JDFS-46,,"Kostomlaty p.Milešovkou,,Pod Březinou",,50.55556865,13.8996458,456,,0,,Europe/Prague,0,
2:75:JDFS-5,,"Velemín,Bílinka,rozc.0.5",,50.5191923,14.0023116,742,,0,,Europe/Prague,0,
2:75:JDFS-6,,"Velemín,Březno",,50.5252571,13.9748473,742,,0,,Europe/Prague,0,
2:76:JDFS-11,,"Žatec,Radíčeves",,50.2914863,13.5156975,901,,0,,Europe/Prague,0,
2:76:JDFS-13,,"Blšany,Liběšovice,Čárka",,50.2389355,13.4952307,937,,0,,Europe/Prague,0,
2:76:JDFS-17,,"Libořice,Železná",,50.2595596,13.52429245,"934,934",,0,,Europe/Prague,0,
2:76:JDFS-2,,"Podbořany,Letov",,50.2328949,13.4454947,932,,0,,Europe/Prague,0,
2:76:JDFS-3,,"Blšany,Liběšovice",,50.24610785,13.5011144,937,,0,,Europe/Prague,0,
2:76:JDFS-4,,Libořice,,50.2545483666667,13.5147222,"934,934",,0,,Europe/Prague,0,
2:76:JDFS-5,,Měcholupy,,50.26655392,13.53529702,921,,0,,Europe/Prague,0,
2:76:JDFS-6,,"Žatec,Milčeves",,50.2728824,13.50848195,901,,0,,Europe/Prague,0,
2:76:JDFS-7,,"Žatec,Radíčeves,rozc.Milošice",,50.28551865,13.5158029,901,,0,,Europe/Prague,0,
2:76:JDFS-9,,"Podbořany,,Letovská",,50.22767065,13.4158945,931,,0,,Europe/Prague,0,
2:77:JDFS-1,,"Mšené-lázně,Brníkov",,50.37825815,14.07841775,778,,0,,Europe/Prague,0,
2:77:JDFS-12,,"Hoštka,,žel.st.",,50.49017905,14.3269043,654,,0,,Europe/Prague,0,
2:77:JDFS-13,,"Budyně n.Ohří,Kostelec n.Ohří",,50.393486,14.09385825,771,,0,,Europe/Prague,0,
2:77:JDFS-14,,Kyškovice,,50.44897,14.2857475,667,,0,,Europe/Prague,0,
2:77:JDFS-19,,"Vrbice,Mastířovice,rozc.",,50.48943,14.308692,656,,0,,Europe/Prague,0,
2:77:JDFS-2,,"Brzánky,,rozc.",,50.466465,14.29235855,668,,0,,Europe/Prague,0,
2:77:JDFS-21,,"Budyně n.Ohří,Písty",,50.4234047,14.1595736,771,,0,,Europe/Prague,0,
2:77:JDFS-22,,"Mšené-lázně,Podbradec",,50.3638992,14.05926415,777,,0,,Europe/Prague,0,
2:77:JDFS-3,,"Budyně n.Ohří,Břežany n.Ohří",,50.41113235,14.114882,771,,0,,Europe/Prague,0,
2:77:JDFS-31,,"Budyně n.Ohří,Roudníček",,50.38985635,14.11394645,771,,0,,Europe/Prague,0,
2:77:JDFS-36,,"Vědomice,,rozc.0.7",,50.43515,14.2646446,667,,0,,Europe/Prague,0,
2:77:JDFS-37,,"Vrbice,Vetlá",,50.47215,14.2893753,656,,0,,Europe/Prague,0,
2:77:JDFS-38,,Vrbice,,50.4829826,14.2866955,656,,0,,Europe/Prague,0,
2:77:JDFS-39,,"Budyně n.Ohří,Vrbka",,50.391876,14.14118885,771,,0,,Europe/Prague,0,
2:77:JDFS-4,,"Budyně n.Ohří,,škola",,50.40242575,14.1286688,771,,0,,Europe/Prague,0,
2:77:JDFS-40,,Žabovřesky n.Ohří,,50.41408915,14.088884375,775,,0,,Europe/Prague,0,
2:77:JDFS-45,,"Vrutice,Svařenice,Vrbická",,50.499042,14.29808615,655,,0,,Europe/Prague,0,
2:77:JDFS-46,,"Radovesice,,náves",,50.4102669,14.0687838,729,,0,,Europe/Prague,0,
2:77:JDFS-5,,"Budyně n.Ohří,,žel.st.",,50.40599765,14.13298555,771,,0,,Europe/Prague,0,
2:77:JDFS-8,,"Kyškovice,Hamráček,rozc.",,50.4565163,14.2863035,667,,0,,Europe/Prague,0,
2:77:JDFS-9,,Hoštka,,50.49164,14.3273335,654,,0,,Europe/Prague,0,
2:78:JDFS-1,,"Háj u Duchcova,,Horní Háj",,50.6374512,13.7080073,442,,0,,Europe/Prague,0,
2:78:JDFS-13,,"Osek,,Národní dům",,50.62586975,13.6916747,443,,0,,Europe/Prague,0,
2:78:JDFS-14,,"Osek,,Tyršova",,50.6306458,13.6991539,443,,0,,Europe/Prague,0,
2:78:JDFS-15,,"Záluží,,Petrochemie",,50.57071,13.6037874,211,,0,,Europe/Prague,0,
2:78:JDFS-2,,"Háj u Duchcova,,statek",,50.64100685,13.71556475,442,,0,,Europe/Prague,0,
2:78:JDFS-21,,"Dubí,Běhánky,Dubská",,50.67983435,13.8068442,421,,0,,Europe/Prague,0,
2:78:JDFS-23,,"Hrob,Křižanov",,50.6520681,13.7153979,441,,0,,Europe/Prague,0,
2:78:JDFS-24,,"Hrob,Mlýny",,50.6614239333333,13.7314011333333,441,,0,,Europe/Prague,0,
2:78:JDFS-25,,"Košťany,Střelná",,50.66536,13.74593115,447,,0,,Europe/Prague,0,
2:78:JDFS-26,,"Košťany,Střelná,sídliště",,50.66936,13.7454786,447,,0,,Europe/Prague,0,
2:78:JDFS-3,,Hrob,,50.65713,13.72611145,441,,0,,Europe/Prague,0,
2:78:JDFS-35,,"Proboštov,Přítkov,křiž.",,50.6804848,13.8302956,421,,0,,Europe/Prague,0,
2:78:JDFS-36,,"Dubí,Drahůnky",,50.6776161,13.81441,421,,0,,Europe/Prague,0,
2:78:JDFS-4,,"Hrob,,Beseda",,50.65449905,13.7214384,441,,0,,Europe/Prague,0,
2:79:JDFS-4,,"Malečov,Rýdeč",,50.6066666,14.1622348,162,,0,,Europe/Prague,0,
2:79:JDFS-5,,Staňkovice,,50.58926,14.1666126,624,,0,,Europe/Prague,0,
2:79:JDFS-8,,"Žitenice,,Skalická",,50.5585022,14.1543093,625,,0,,Europe/Prague,0,
2:7:JDFS-1,,"Dobrná,Brložec",,50.7769874,14.3102058,346,,0,,Europe/Prague,0,
2:7:JDFS-10,,"Dobrná,,hor.ves",,50.7757727,14.2955432,346,,0,,Europe/Prague,0,
2:7:JDFS-11,,"Dobrná,,kovárna",,50.7655889,14.2855425,346,,0,,Europe/Prague,0,
2:7:JDFS-12,,"Dobrná,,rozc.Brložec",,50.77810145,14.29667805,346,,0,,Europe/Prague,0,
2:7:JDFS-13,,"Dobrná,,škola",,50.7703967,14.2934599,346,,0,,Europe/Prague,0,
2:7:JDFS-14,,Huntířov,,50.78913975,14.303213025,345,,0,,Europe/Prague,0,
2:7:JDFS-15,,"Huntířov,,dol.ves",,50.79374205,14.3082781,345,,0,,Europe/Prague,0,
2:7:JDFS-16,,"Huntířov,,kostel",,50.78351975,14.3013649,345,,0,,Europe/Prague,0,
2:7:JDFS-17,,"Jetřichovice,,host.",,50.8524335333333,14.3966344666667,"341,341",,0,,Europe/Prague,0,
2:7:JDFS-18,,"Jetřichovice,,koup.",,50.84752845,14.394619,341,,0,,Europe/Prague,0,
2:7:JDFS-19,,"Jetřichovice,,ObÚ",,50.85242135,14.39355995,341,,0,,Europe/Prague,0,
2:7:JDFS-2,,"Děčín,,aut.nádr.",,50.7709011571429,14.1981729857143,301,,0,,Europe/Prague,0,
2:7:JDFS-20,,"Jetřichovice,,Starý mlýn",,50.8532176,14.37862155,341,,0,,Europe/Prague,0,
2:7:JDFS-21,,"Huntířov,Nová Oleška,rozc.",,50.81159205,14.3207397,345,,0,,Europe/Prague,0,
2:7:JDFS-22,,"Huntířov,Nová Oleška,škola",,50.8065977,14.3230524,345,,0,,Europe/Prague,0,
2:7:JDFS-23,,"Srbská Kamenice,,Ferd.sout.",,50.8314171,14.35671615,343,,0,,Europe/Prague,0,
2:7:JDFS-25,,"Srbská Kamenice,,pošta",,50.82177655,14.35469725,343,,0,,Europe/Prague,0,
2:7:JDFS-26,,"Huntířov,Stará Oleška,koupaliště",,50.8011608,14.3354926,345,,0,,Europe/Prague,0,
2:7:JDFS-27,,"Huntířov,Stará Oleška,škola",,50.80074755,14.3329267,345,,0,,Europe/Prague,0,
2:7:JDFS-28,,"Děčín,,Narex",,50.778643,14.2252655,301,,0,,Europe/Prague,0,
2:7:JDFS-29,,"Jetřichovice,Rynartice,Pod zámečkem",,50.85096135,14.42201615,"341,341",,0,,Europe/Prague,0,
2:7:JDFS-3,,"Děčín,,hl.nádr.",,50.7742087666667,14.2009588666667,301,,0,,Europe/Prague,0,
2:7:JDFS-30,,"Jetřichovice,Vysoká Lípa,rozc.",,50.8590461,14.3529978,342,,0,,Europe/Prague,0,
2:7:JDFS-31,,"Jetřichovice,Všemily,konírna",,50.84057045,14.38351535,341,,0,,Europe/Prague,0,
2:7:JDFS-32,,"Jetřichovice,Všemily,rozc.",,50.837191975,14.3743315,341,,0,,Europe/Prague,0,
2:7:JDFS-33,,"Jetřichovice,Všemily",,50.837191975,14.3743315,341,,0,,Europe/Prague,0,
2:7:JDFS-34,,"Jetřichovice,Vysoká Lípa,hotel Lípa",,50.8559034,14.3502798,342,,0,,Europe/Prague,0,
2:7:JDFS-35,,"Jetřichovice,Vysoká Lípa,rest.",,50.86192,14.35502925,342,,0,,Europe/Prague,0,
2:7:JDFS-36,,"Jetřichovice,Rynartice",,50.8529375,14.4242668,341,,0,,Europe/Prague,0,
2:7:JDFS-37,,"Huntířov,Nová Oleška,rybník",,50.8105281,14.32066535,345,,0,,Europe/Prague,0,
2:7:JDFS-4,,"Děčín,,Myslbekova",,50.77993965,14.2160295,301,,0,,Europe/Prague,0,
2:7:JDFS-5,,"Děčín,,Nářadí",,50.7779655,14.2214632,301,,0,,Europe/Prague,0,
2:7:JDFS-6,,"Děčín,,škola",,50.77969815,14.2309809,301,,0,,Europe/Prague,0,
2:7:JDFS-7,,"Děčín,,Tyršova",,50.78040505,14.2109227,301,,0,,Europe/Prague,0,
2:7:JDFS-8,,"Děčín,Březiny,Libverda",,50.7694206,14.23748875,301,,0,,Europe/Prague,0,
2:7:JDFS-9,,"Děčín,Březiny,škola",,50.7648487,14.24874545,301,,0,,Europe/Prague,0,
2:80:JDFS-1,,Blšany u Loun,,50.34777835,13.8491497,882,,0,,Europe/Prague,0,
2:80:JDFS-10,,"Louny,,28.října",,50.35472,13.8116159,801,,0,,Europe/Prague,0,
2:80:JDFS-14,,"Chožov,Mnichovský Týnec",,50.418663,13.8376427,855,,0,,Europe/Prague,0,
2:80:JDFS-15,,"Louny,Nečichy",,50.3859587333333,13.8105086333333,859,,0,,Europe/Prague,0,
2:80:JDFS-16,,"Chlumčany,Vlčí",,50.333416,13.8519859,881,,0,,Europe/Prague,0,
2:80:JDFS-18,,"Černčice,,Raisova",,50.3596036,13.84680325,861,,0,,Europe/Prague,0,
2:80:JDFS-19,,"Dobroměřice,,Nečišská",,50.370315,13.79501675,856,,0,,Europe/Prague,0,
2:80:JDFS-3,,"Chlumčany,,obec",,50.33369825,13.84368945,881,,0,,Europe/Prague,0,
2:80:JDFS-4,,"Chlumčany,,žel.st.",,50.339365,13.842785,881,,0,,Europe/Prague,0,
2:80:JDFS-5,,Chraberce,,50.4084021,13.8285136,855,,0,,Europe/Prague,0,
2:80:JDFS-6,,Libčeves,,50.4514185333333,13.8346309333333,851,,0,,Europe/Prague,0,
2:80:JDFS-9,,"Louny,,Petra Obrovce",,50.35947,13.7876377,801,,0,,Europe/Prague,0,
2:82:JDFS-10,,"Hřensko,,k soutěskám",,50.87440875,14.25256395,321,,0,,Europe/Prague,0,
2:82:JDFS-11,,"Hřensko,,Na výsluní",,50.86699675,14.23156,321,,0,,Europe/Prague,0,
2:82:JDFS-12,,"Hřensko,,nábř.",,50.8733915,14.23575305,321,,0,,Europe/Prague,0,
2:82:JDFS-13,,"Hřensko,,Pravčická brána",,50.88093185,14.270196,321,,0,,Europe/Prague,0,
2:82:JDFS-15,,"Hřensko,,úpravna vody",,50.87713245,14.26130055,321,,0,,Europe/Prague,0,
2:82:JDFS-16,,"Chřibská,,nám.",,50.8631363,14.4827611,361,,0,,Europe/Prague,0,
2:82:JDFS-21,,"Děčín,Loubí,I",,50.7968979,14.2378693,301,,0,,Europe/Prague,0,
2:82:JDFS-22,,"Děčín,Loubí,II",,50.80117324,14.237996,301,,0,,Europe/Prague,0,
2:82:JDFS-23,,"Děčín,Loubí,překladiště",,50.792555,14.2357855,301,,0,,Europe/Prague,0,
2:82:JDFS-24,,"Hřensko,Mezná",,50.8685379,14.2982235,322,,0,,Europe/Prague,0,
2:82:JDFS-25,,"Hřensko,Mezní Louka,před hotelem",,50.8735943,14.31701945,322,,0,,Europe/Prague,0,
2:82:JDFS-26,,"Hřensko,Mezní Louka",,50.8735483,14.3167572,322,,0,,Europe/Prague,0,
2:82:JDFS-27,,"Rybniště,,odb.Doubice",,50.87673755,14.50687885,363,,0,,Europe/Prague,0,
2:82:JDFS-28,,"Rybniště,,žel.st.",,50.88281,14.5102673,363,,0,,Europe/Prague,0,
2:82:JDFS-29,,"Chřibská,Dolní Chřibská",,50.86626435,14.4699545,361,,0,,Europe/Prague,0,
2:82:JDFS-3,,"Děčín,,Masarykovo nám.",,50.7814729,14.2140293,301,,0,,Europe/Prague,0,
2:82:JDFS-30,,"Chřibská,Dolní Chřibská,rozc.",,50.86396605,14.4532833,361,,0,,Europe/Prague,0,
2:82:JDFS-32,,"Krásná Lípa,Kyjov",,50.91595,14.47781325,386,,0,,Europe/Prague,0,
2:82:JDFS-33,,"Krásná Lípa,Kyjov,host.",,,,386,,0,,Europe/Prague,0,
2:82:JDFS-34,,"Krásná Lípa,Kyjov,ovčín",,,,386,,0,,Europe/Prague,0,
2:82:JDFS-35,,"Krásná Lípa,Kyjov,rozc.",,,,386,,0,,Europe/Prague,0,
2:82:JDFS-36,,"Rybniště,Nová Chřibská",,50.87236025,14.50011555,363,,0,,Europe/Prague,0,
2:82:JDFS-37,,"Děčín,Loubí,IV",,50.7969933,14.23802,301,,0,,Europe/Prague,0,
2:82:JDFS-4,,"Děčín,,Podskalí",,50.8142757,14.22783945,301,,0,,Europe/Prague,0,
2:82:JDFS-43,,"Jetřichovice,Vysoká Lípa,Divoká soutěska",,50.86570275,14.3336883,342,,0,,Europe/Prague,0,
2:82:JDFS-44,,"Chřibská,,Na Potocích",,50.8589325,14.4402154333333,352,,0,,Europe/Prague,0,
2:82:JDFS-5,,"Děčín,,28.října",,50.784215,14.21755365,301,,0,,Europe/Prague,0,
2:82:JDFS-6,,"Děčín,Dolní Žleb,hranice",,50.85903355,14.2250695,321,,0,,Europe/Prague,0,
2:82:JDFS-7,,Doubice,,50.88371,14.46383475,387,,0,,Europe/Prague,0,
2:82:JDFS-8,,"Doubice,,ObÚ",,50.88871265,14.46093035,387,,0,,Europe/Prague,0,
2:82:JDFS-9,,"Doubice,,u háj.",,50.8942962,14.45533135,387,,0,,Europe/Prague,0,
2:83:JDFS-1,,"Čepirohy,,Hrabák",,50.4761525,13.61633205,201,,0,,Europe/Prague,0,
2:83:JDFS-10,,"Most,,J.Skupy",,50.5067,13.63532,201,,0,,Europe/Prague,0,
2:83:JDFS-11,,"Most,,Kahan",,50.4917564,13.6522141,201,,0,,Europe/Prague,0,
2:83:JDFS-12,,"Most,,Krym",,50.50258,13.6628971,201,,0,,Europe/Prague,0,
2:83:JDFS-13,,"Most,,Zd.Štěpánka",,50.49457,13.6440229,201,,0,,Europe/Prague,0,
2:83:JDFS-14,,"Velebudice,,rozc.0.5",,50.48587,13.63491155,201,,0,,Europe/Prague,0,
2:83:JDFS-16,,"Most,,Sever",,50.5077933,13.654932,201,,0,,Europe/Prague,0,
2:83:JDFS-17,,"Most,,Rudolická MUS a.s.",,50.5090027,13.6582708,201,,0,,Europe/Prague,0,
2:83:JDFS-18,,"Most,,nádraží",,50.5106468,13.6579609,201,,0,,Europe/Prague,0,
2:83:JDFS-2,,"Čepirohy,,ZK",,50.4794068,13.61848025,201,,0,,Europe/Prague,0,
2:83:JDFS-3,,Havraň,,50.4500046,13.5988994,202,,0,,Europe/Prague,0,
2:83:JDFS-4,,"Havraň,,škola",,50.44464295,13.59496735,202,,0,,Europe/Prague,0,
2:83:JDFS-7,,"Most,,14.ZŠ",,50.49589875,13.6562176,201,,0,,Europe/Prague,0,
2:83:JDFS-8,,"Most,,1.nám.",,50.50183345,13.6392155,201,,0,,Europe/Prague,0,
2:83:JDFS-9,,"Most,,Čs.mládeže",,50.49465,13.6352568,"201,201",,0,,Europe/Prague,0,
2:84:JDFS-1,,"Podbořany,Buškovice",,50.22389,13.3729019,931,,0,,Europe/Prague,0,
2:84:JDFS-10,,"Podbořany,,OSP",,50.2219543,13.3990583,931,,0,,Europe/Prague,0,
2:84:JDFS-12,,Vroutek,,50.1818513333333,13.3787015333333,941,,0,,Europe/Prague,0,
2:84:JDFS-13,,"Vroutek,,líheň",,50.19081,13.3624277,"941,941",,0,,Europe/Prague,0,
2:84:JDFS-2,,"Nepomyšl,Dvérce",,50.2050323,13.3261261,"943,943",,0,,Europe/Prague,0,
2:84:JDFS-3,,"Nepomyšl,Dvérce,záv.",,50.19938,13.3381529,"943,943",,0,,Europe/Prague,0,
2:84:JDFS-4,,"Podbořany,Hlubany,záv.",,50.2226181,13.3895392,931,,0,,Europe/Prague,0,
2:84:JDFS-6,,Nepomyšl,,50.21841,13.313406,943,,0,,Europe/Prague,0,
2:84:JDFS-7,,"Nepomyšl,,Dvérecká",,50.2137642,13.3162832,943,,0,,Europe/Prague,0,
2:84:JDFS-8,,"Nepomyšl,,kostel",,50.2167053,13.311388,943,,0,,Europe/Prague,0,
2:84:JDFS-9,,Podbořanský Rohozec,,50.21601,13.2627478,949,,0,,Europe/Prague,0,
2:86:JDFS-1,,"Blahuňov,,rozc.1.0",,50.4423030666667,13.3031435,525,,0,,Europe/Prague,0,
2:86:JDFS-10,,Málkov,,50.4450289666667,13.3325049333333,525,,0,,Europe/Prague,0,
2:86:JDFS-11,,"Mašťov,,nám.",,50.26261,13.2807264,592,,0,,Europe/Prague,0,
2:86:JDFS-12,,"Mašťov,,statek",,50.27292315,13.290957,592,,0,,Europe/Prague,0,
2:86:JDFS-13,,"Krásný Dvůr,Němčany",,50.2540272,13.3128376,933,,0,,Europe/Prague,0,
2:86:JDFS-17,,Prunéřov,,50.4272842,13.2626839,532,,0,,Europe/Prague,0,
2:86:JDFS-19,,"Prunéřov,,důl Nástup",,50.4039402,13.27678395,532,,0,,Europe/Prague,0,
2:86:JDFS-22,,"Prunéřov,,KKZ",,50.4137459,13.2487602,532,,0,,Europe/Prague,0,
2:86:JDFS-23,,"Prunéřov,,SSaŽ",,50.40443275,13.25649975,532,,0,,Europe/Prague,0,
2:86:JDFS-25,,"Prunéřov,,Ušák",,50.4324518,13.27717825,532,,0,,Europe/Prague,0,
2:86:JDFS-29,,Vilémov,,50.3016777,13.313489,561,,0,,Europe/Prague,0,
2:86:JDFS-32,,Zelená,,50.44737,13.3228121,525,,0,,Europe/Prague,0,
2:86:JDFS-37,,"Krásný Dvůr,Brody,rozc.",,50.2495116,13.34179925,933,,0,,Europe/Prague,0,
2:86:JDFS-39,,"Chomutov,,Mostecká",,50.4630985,13.4192185,501,,0,,Europe/Prague,0,
2:86:JDFS-4,,"Krásný Dvůr,Chrášťany",,50.2576866,13.3587523,933,,0,,Europe/Prague,0,
2:86:JDFS-42,,"Chomutov,,Gymnázium",,50.466142,13.4226427,501,,0,,Europe/Prague,0,
2:86:JDFS-43,,"Chomutov,,U Hačky",,50.45792345,13.3816018,501,,0,,Europe/Prague,0,
2:86:JDFS-44,,"Černovice,,hlavní silnice",,50.449359,13.35865595,501,,0,,Europe/Prague,0,
2:86:JDFS-45,,"Vilémov,Zahořany",,50.31129455,13.3101231,561,,0,,Europe/Prague,0,
2:87:JDFS-1,,Býčkovice,,50.559805,14.2137593,628,,0,,Europe/Prague,0,
2:87:JDFS-10,,"Litoměřice,,u stadionu",,50.5348172,14.14461235,601,,0,,Europe/Prague,0,
2:87:JDFS-12,,Ploskovice,,50.56045,14.1987877,622,,0,,Europe/Prague,0,
2:87:JDFS-13,,"Ploskovice,,rozc.1.5",,50.55023385,14.20470425,622,,0,,Europe/Prague,0,
2:87:JDFS-14,,"Liběšice,Soběnice,Horní Nezly",,50.5739723,14.22720765,627,,0,,Europe/Prague,0,
2:87:JDFS-15,,"Ploskovice,Starý Mlýnec,rozc.",,50.57744275,14.20912935,622,,0,,Europe/Prague,0,
2:87:JDFS-17,,Trnovany,,50.54282,14.1795897,626,,0,,Europe/Prague,0,
2:87:JDFS-2,,"Býčkovice,,rozc.",,50.55199145,14.214490425,"628,628",,0,,Europe/Prague,0,
2:87:JDFS-20,,"Býčkovice,Velký Újezd",,50.5449543,14.2158699,628,,0,,Europe/Prague,0,
2:87:JDFS-21,,"Křešice,Zahořany",,50.529995,14.2172689,672,,0,,Europe/Prague,0,
2:87:JDFS-23,,"Třebušín,Řepčice",,50.608505,14.19038295,621,,0,,Europe/Prague,0,
2:87:JDFS-24,,"Ploskovice,Vinné",,50.584155,14.20771275,622,,0,,Europe/Prague,0,
2:87:JDFS-3,,"Liběšice,Dolní Nezly",,50.56931795,14.2272415,627,,0,,Europe/Prague,0,
2:87:JDFS-4,,"Liběšice,Dolní Řepčice",,50.5587654,14.2342458,627,,0,,Europe/Prague,0,
2:87:JDFS-5,,"Třebušín,Kotelice",,50.58901595,14.2307615,621,,0,,Europe/Prague,0,
2:87:JDFS-8,,"Litoměřice,,Na mýtě",,50.53809925,14.15524625,601,,0,,Europe/Prague,0,
2:89:JDFS-1,,"Krásný Dvůr,Chotěbudice",,50.268085,13.3415781,933,,0,,Europe/Prague,0,
2:89:JDFS-3,,"Podbořany,Kněžice",,50.2886772,13.42939,932,,0,,Europe/Prague,0,
2:89:JDFS-5,,"Podbořany,Mory",,50.28035,13.4131041,932,,0,,Europe/Prague,0,
2:89:JDFS-9,,Veliká Ves,,50.2695847,13.37531,565,,0,,Europe/Prague,0,
2:8:JDFS-1,,"Jiříkov,,kopec",,50.9944231,14.547225,382,,0,,Europe/Prague,0,
2:8:JDFS-10,,"Rumburk,,Krásnolipská",,50.94462965,14.5461311,381,,0,,Europe/Prague,0,
2:8:JDFS-11,,"Rumburk,,odstavné park.",,50.93212125,14.5588751,381,,0,,Europe/Prague,0,
2:8:JDFS-12,,"Rumburk,,zámeček",,50.9684621333333,14.5636819,381,,0,,Europe/Prague,0,
2:8:JDFS-13,,"Rumburk,,žel.st.",,50.9563179,14.5529747,381,,0,,Europe/Prague,0,
2:8:JDFS-14,,"Šluknov,,Benar",,51.005295,14.46565485,391,,0,,Europe/Prague,0,
2:8:JDFS-15,,"Šluknov,,garáže",,51.0024171,14.44113775,391,,0,,Europe/Prague,0,
2:8:JDFS-16,,"Varnsdorf,,aut.nádr.",,50.9121841,14.61861878,371,,0,,Europe/Prague,0,
2:8:JDFS-17,,"Varnsdorf,,sportovní hala",,50.90736815,14.62361955,371,,0,,Europe/Prague,0,
2:8:JDFS-18,,"Varnsdorf,,hotel Sport",,50.9064535,14.6378789,371,,0,,Europe/Prague,0,
2:8:JDFS-19,,"Varnsdorf,,Čs.mládeže",,50.90763095,14.5800748,371,,0,,Europe/Prague,0,
2:8:JDFS-2,,"Jiříkov,,koup.",,50.98671335,14.56847785,382,,0,,Europe/Prague,0,
2:8:JDFS-20,,"Varnsdorf,,Kaufland",,50.9125989333333,14.6124045,371,,0,,Europe/Prague,0,
2:8:JDFS-21,,"Varnsdorf,,žel.st.",,50.90366555,14.63853695,371,,0,,Europe/Prague,0,
2:8:JDFS-22,,"Varnsdorf,Studánka",,50.905735,14.5579929,372,,0,,Europe/Prague,0,
2:8:JDFS-23,,"Velký Šenov,,Benzina",,51.0000954,14.3907561,392,,0,,Europe/Prague,0,
2:8:JDFS-24,,"Velký Šenov,,nám.",,50.99184,14.37929,392,,0,,Europe/Prague,0,
2:8:JDFS-25,,"Velký Šenov,,žel.zast.",,51.0045560333333,14.3946609333333,392,,0,,Europe/Prague,0,
2:8:JDFS-26,,"Šluknov,,zámek-terminál",,51.0043347666667,14.4546785,391,,0,,Europe/Prague,0,
2:8:JDFS-27,,"Lobendava,Severní",,51.0362129,14.3134155,396,,0,,Europe/Prague,0,
2:8:JDFS-28,,"Lobendava,Severní,Zátiší",,51.030165,14.31807945,396,,0,,Europe/Prague,0,
2:8:JDFS-29,,"Šluknov,Císařský",,51.002964,14.43127,391,,0,,Europe/Prague,0,
2:8:JDFS-3,,"Jiříkov,,nám.",,50.9936371,14.5684939,382,,0,,Europe/Prague,0,
2:8:JDFS-30,,"Šluknov,Císařský,lom",,51.002964,14.43127,391,,0,,Europe/Prague,0,
2:8:JDFS-31,,"Šluknov,Království,Jednota",,51.0019089,14.48208285,391,,0,,Europe/Prague,0,
2:8:JDFS-32,,"Šluknov,Království,kostel",,50.99850895,14.48984245,391,,0,,Europe/Prague,0,
2:8:JDFS-33,,"Šluknov,Království,křížek",,50.99635505,14.50301645,391,,0,,Europe/Prague,0,
2:8:JDFS-34,,"Šluknov,Království,přádelna",,51.0046005,14.47352695,391,,0,,Europe/Prague,0,
2:8:JDFS-35,,"Šluknov,Království,samota",,50.9948966,14.5164771,391,,0,,Europe/Prague,0,
2:8:JDFS-4,,"Jiříkov,,předměstí",,50.98141,14.5673599,382,,0,,Europe/Prague,0,
2:8:JDFS-5,,Lipová,,51.01133725,14.3585019,395,,0,,Europe/Prague,0,
2:8:JDFS-6,,"Lipová,,U pomníku",,51.00703145,14.37683575,395,,0,,Europe/Prague,0,
2:8:JDFS-7,,Lobendava,,51.0198123,14.3165969666667,396,,0,,Europe/Prague,0,
2:8:JDFS-8,,"Rumburk,,Bytex 01",,50.95120245,14.5552371,381,,0,,Europe/Prague,0,
2:8:JDFS-9,,"Rumburk,,Desta",,50.96125415,14.5596056,381,,0,,Europe/Prague,0,
2:90:JDFS-1,,"Beřovice,Bakov",,50.26160375,14.0962057,"5,794",,0,,Europe/Prague,0,
2:90:JDFS-15,,"Litoměřice,,u závor",,50.5418662,14.1257019,"601,9",,0,,Europe/Prague,0,
2:90:JDFS-17,,"Litoměřice,Pokratice,kaplička",,50.54827355,14.1265655,"601,9",,0,,Europe/Prague,0,
2:90:JDFS-18,,"Litoměřice,,Pokratická",,50.54514125,14.1244822,"601,9",,0,,Europe/Prague,0,
2:90:JDFS-22,,Poštovice,,50.3127814,14.13786355,"5,796",,0,,Europe/Prague,0,
2:90:JDFS-26,,"Slaný,,aut.nádr.",,50.2284679,14.0884216785714,"4,791",,0,,Europe/Prague,0,
2:90:JDFS-27,,"Slaný,,Nosačická",,50.233980225,14.08734345,"4,791",,0,,Europe/Prague,0,
2:90:JDFS-28,,"Slaný,,Palackého",,50.23231505,14.0849285,"4,791",,0,,Europe/Prague,0,
2:90:JDFS-29,,Šlapanice,,50.3137436,14.11014175,"5,796",,0,,Europe/Prague,0,
2:90:JDFS-30,,"Šlapanice,,samota",,50.3108349,14.12203025,"5,796",,0,,Europe/Prague,0,
2:90:JDFS-33,,Zlonice,,50.2885246,14.0922947,"5,794",,0,,Europe/Prague,0,
2:90:JDFS-34,,"Zlonice,,škola",,50.28349495,14.0925164,"5,794",,0,,Europe/Prague,0,
2:90:JDFS-35,,"Slaný,Želevčice",,50.2574158,14.09677935,"4,791",,0,,Europe/Prague,0,
2:90:JDFS-36,,"Slaný,,Šultysova",,50.2302356,14.083558325,"4,791",,0,,Europe/Prague,0,
2:90:JDFS-39,,"Slaný,,Prům.zóna sever",,50.23404,14.0875549,"4,791",,0,,Europe/Prague,0,
2:90:JDFS-7,,"Budyně n.Ohří,,Slánská",,50.39824675,14.1233654,"771,7",,0,,Europe/Prague,0,
2:91:JDFS-1,,"Horní Podluží,křiž.",,50.8816544333333,14.5455713666667,364,,0,,Europe/Prague,0,
2:91:JDFS-10,,"Krásná Lípa,Tyršova",,50.91940175,14.5181416,386,,0,,Europe/Prague,0,
2:91:JDFS-11,,"Krásná Lípa,žel.st.",,,,386,,0,,Europe/Prague,0,
2:91:JDFS-17,,"Rumburk,rest.Zátiší",,50.93147085,14.5329471,381,,0,,Europe/Prague,0,
2:91:JDFS-19,,"Rybniště,pošta",,50.8792433333333,14.5133151666667,"363,363",,0,,Europe/Prague,0,
2:91:JDFS-20,,"Rybniště,u hřbitova",,50.8848553,14.5202446,363,,0,,Europe/Prague,0,
2:91:JDFS-22,,"Rybniště,Nová Ves",,50.89234,14.511914,363,,0,,Europe/Prague,0,
2:91:JDFS-23,,"Jiříkov,Vyhlídka",,50.97182905,14.5958781,382,,0,,Europe/Prague,0,
2:91:JDFS-24,,"Jiříkov,Filipov,kino",,50.98501015,14.5952258,382,,0,,Europe/Prague,0,
2:91:JDFS-25,,"Jiříkov,Filipov,kostel",,50.980495,14.5971556,382,,0,,Europe/Prague,0,
2:91:JDFS-27,,"Ebersbach,Bahnhof",,51.0045166,14.5777578,-,,0,,Europe/Prague,0,
2:91:JDFS-28,,"Jiříkov,CLO",,,,-,,0,,Europe/Prague,0,
2:91:JDFS-29,,"Neugersdorf,ZOLL",,,,-,,0,,Europe/Prague,0,
2:91:JDFS-3,,"Jiříkov,Elitex",,51.00032045,14.57395125,382,,0,,Europe/Prague,0,
2:91:JDFS-30,,"Horní Podluží,žel.zast.",,50.88246105,14.55660915,364,,0,,Europe/Prague,0,
2:91:JDFS-5,,"Jiříkov,škola",,50.9925475,14.57444715,382,,0,,Europe/Prague,0,
2:91:JDFS-6,,"Jiříkov,Zahradní",,50.98989815,14.5813899,382,,0,,Europe/Prague,0,
2:91:JDFS-8,,"Krásná Lípa,ozdravovna",,,,386,,0,,Europe/Prague,0,
2:91:JDFS-9,,"Krásná Lípa,pož.zbroj.",,,,386,,0,,Europe/Prague,0,
2:92:JDFS-1,,Braňany,,50.542639,13.70094585,231,,0,,Europe/Prague,0,
2:92:JDFS-10,,"Louka u Litvínova,,Husova",,50.5843163,13.6392813,221,,0,,Europe/Prague,0,
2:92:JDFS-11,,"Mariánské Radčice,,důl Kohinoor",,50.57850645,13.6517172,221,,0,,Europe/Prague,0,
2:92:JDFS-12,,"Mariánské Radčice,,otočka",,50.5738831,13.6634455,221,,0,,Europe/Prague,0,
2:92:JDFS-13,,"Mariánské Radčice,,pož.zbroj.",,50.574695,13.66125105,221,,0,,Europe/Prague,0,
2:92:JDFS-14,,"Litvínov,,Ruská ul.",,50.60035,13.6078148,221,,0,,Europe/Prague,0,
2:92:JDFS-2,,"Braňany,,závod",,50.5419846,13.7126617,231,,0,,Europe/Prague,0,
2:92:JDFS-5,,"Litvínov,,Tržní",,50.59642275,13.6170354,221,,0,,Europe/Prague,0,
2:92:JDFS-6,,"Louka u Litvínova,,kulturní dům",,50.5866966,13.6383705,221,,0,,Europe/Prague,0,
2:92:JDFS-7,,"Louka u Litvínova,,Sokolovská",,50.5889664,13.6352005,221,,0,,Europe/Prague,0,
2:92:JDFS-8,,"Louka u Litvínova,,u nádraží",,50.5935249,13.628027,221,,0,,Europe/Prague,0,
2:92:JDFS-9,,"Louka u Litvínova,,u rybníčka",,50.5911751,13.6313305,221,,0,,Europe/Prague,0,
2:94:JDFS-1,,"Postoloprty,Dolejší Hůrky",,50.34273,13.6278973,814,,0,,Europe/Prague,0,
2:94:JDFS-10,,Staňkovice,,50.349575,13.570694,813,,0,,Europe/Prague,0,
2:94:JDFS-11,,"Staňkovice,Tvršice",,50.3411865,13.5897789,813,,0,,Europe/Prague,0,
2:94:JDFS-14,,"Žatec,,Lounská",,50.3433647,13.56146,901,,0,,Europe/Prague,0,
2:94:JDFS-2,,"Postoloprty,Levonice",,50.3381729,13.6746531,811,,0,,Europe/Prague,0,
2:94:JDFS-3,,Lišany,,50.34502,13.6429329,814,,0,,Europe/Prague,0,
2:94:JDFS-4,,"Lišany,,záv.",,50.34831,13.657299,814,,0,,Europe/Prague,0,
2:94:JDFS-7,,"Postoloprty,,žel.st.",,50.3601646,13.6921482,811,,0,,Europe/Prague,0,
2:94:JDFS-8,,"Postoloprty,,sídliště",,50.35665,13.6917791,811,,0,,Europe/Prague,0,
2:94:JDFS-9,,"Staňkovice,Selibice",,50.34283,13.61458,813,,0,,Europe/Prague,0,
2:95:JDFS-19,,"Libochovice,Poplze",,50.397685,14.0432005,721,,0,,Europe/Prague,0,
2:95:JDFS-35,,"Mšené-lázně,Vrbice",,50.35860635,14.12759875,776,,0,,Europe/Prague,0,
2:95:JDFS-6,,"Libochovice,,nám.Svobody",,50.4061661,14.0394163,721,,0,,Europe/Prague,0,
2:95:JDFS-9,,"Mšené-lázně,,Loucká",,50.3444309,14.1053419,777,,0,,Europe/Prague,0,
2:96:JDFS-1,,"Homole u Panny,Bláhov",,50.63183025,14.20275085,154,,0,,Europe/Prague,0,
2:96:JDFS-10,,"Petrovice,Krásný Les,konečná",,50.7719536,13.9219589,125,,0,,Europe/Prague,0,
2:96:JDFS-11,,"Petrovice,Krásný Les,rozc.Nakléřov",,50.7597,13.9416876,125,,0,,Europe/Prague,0,
2:96:JDFS-12,,"Homole u Panny,Lhota p.Pannou",,50.6330643,14.1599121,154,,0,,Europe/Prague,0,
2:96:JDFS-13,,"Homole u Panny,Lhota p.Pannou,rozc.",,50.62975875,14.167789675,154,,0,,Europe/Prague,0,
2:96:JDFS-14,,"Homole u Panny,Lhota p.Pannou,samota",,50.6330643,14.1599121,154,,0,,Europe/Prague,0,
2:96:JDFS-15,,"Homole u Panny,Nová Ves u Pláně",,50.6357341,14.185090475,154,,0,,Europe/Prague,0,
2:96:JDFS-16,,"Homole u Panny,Suletice",,50.6417847,14.169385,154,,0,,Europe/Prague,0,
2:96:JDFS-18,,"Telnice,,háj.",,50.7351151,13.9485722,124,,0,,Europe/Prague,0,
2:96:JDFS-19,,"Telnice,,Lesní zámeček",,50.73218,13.9586973,124,,0,,Europe/Prague,0,
2:96:JDFS-2,,"Homole u Panny,Byňov",,50.64226675,14.15087375,154,,0,,Europe/Prague,0,
2:96:JDFS-20,,"Telnice,,rozc.Krásný Les",,50.7376366,13.9422607,124,,0,,Europe/Prague,0,
2:96:JDFS-21,,"Telnice,,Zadní Telnice",,50.73593,13.926918,124,,0,,Europe/Prague,0,
2:96:JDFS-22,,"Telnice,,žel.st.",,50.727993,13.9639673,124,,0,,Europe/Prague,0,
2:96:JDFS-25,,"Ústí n.L.,,Podhoří",,50.69161795,13.9795928,101,,0,,Europe/Prague,0,
2:96:JDFS-29,,"Ústí n.L.,,Všebořická",,50.6830374,13.99837825,101,,0,,Europe/Prague,0,
2:96:JDFS-3,,"Homole u Panny,Byňov,odb.Proboštov",,50.6366415,14.15627,154,,0,,Europe/Prague,0,
2:96:JDFS-31,,"Ústí n.L.,,Lipová",,50.6857272,13.99327515,101,,0,,Europe/Prague,0,
2:96:JDFS-34,,"Telnice,Varvažov,čtyřdomí",,50.7176933,13.9606638,124,,0,,Europe/Prague,0,
2:96:JDFS-35,,"Telnice,Varvažov",,50.7232742,13.9641066,124,,0,,Europe/Prague,0,
2:96:JDFS-36,,"Telnice,Varvažov,pomníky",,50.71266,13.9567108,124,,0,,Europe/Prague,0,
2:96:JDFS-37,,"Velké Březno,,škola",,50.6630268,14.14157585,151,,0,,Europe/Prague,0,
2:96:JDFS-39,,"Velké Březno,Vítov",,50.6554663,14.13917255,151,,0,,Europe/Prague,0,
2:96:JDFS-4,,"Homole u Panny,Haslice",,50.62394905,14.19934,154,,0,,Europe/Prague,0,
2:96:JDFS-40,,"Chlumec,Žandov,rozc.",,50.70367735,13.9496498,121,,0,,Europe/Prague,0,
2:96:JDFS-46,,"Svádov,,obec",,,,101,,0,,Europe/Prague,0,
2:96:JDFS-47,,"Ústí n.L.,,Bukov",,50.6792545,14.00920105,101,,0,,Europe/Prague,0,
2:96:JDFS-48,,"Ústí n.L.,Všebořice,obchodní centrum",,50.6898086,13.98284005,101,,0,,Europe/Prague,0,
2:96:JDFS-5,,Homole u Panny,,50.629439,14.18644475,154,,0,,Europe/Prague,0,
2:96:JDFS-50,,"Ústí n.L.,,Uhlozbyt",,,,101,,0,,Europe/Prague,0,
2:96:JDFS-51,,"Ústí n.L.,Všebořice,Havířská",,50.688033,13.96793695,101,,0,,Europe/Prague,0,
2:96:JDFS-53,,"Ústí n.L.,Všebořice,U Českého Újezdu",,50.68611525,13.96122935,101,,0,,Europe/Prague,0,
2:96:JDFS-6,,"Homole u Panny,,rozc.Doubravice",,50.62928775,14.2060316,154,,0,,Europe/Prague,0,
2:96:JDFS-8,,"Chlumec,,žel.přejezd",,50.69058325,13.945891,121,,0,,Europe/Prague,0,
2:98:JDFS-11,,"Pnětluky,,letovisko",,50.25582,13.70883,833,,0,,Europe/Prague,0,
2:98:JDFS-12,,"Zbrašín,Senkov,rozc.",,50.2966156,13.7815151,823,,0,,Europe/Prague,0,
2:98:JDFS-13,,Zbrašín,,50.29819,13.76497,823,,0,,Europe/Prague,0,
2:98:JDFS-14,,"Pnětluky,,V domcích",,50.2523,13.7064066,833,,0,,Europe/Prague,0,
2:98:JDFS-2,,"Cítoliby,,škola",,50.33004845,13.81237745,824,,0,,Europe/Prague,0,
2:98:JDFS-3,,"Zbrašín,Hořany",,50.29415,13.7492542,823,,0,,Europe/Prague,0,
2:98:JDFS-4,,Hřivice,,50.2864292,13.7270956,821,,0,,Europe/Prague,0,
2:98:JDFS-5,,"Pnětluky,Konětopy",,50.2677536,13.7300339,821,,0,,Europe/Prague,0,
2:98:JDFS-6,,Líšťany,,50.31275,13.7995529,825,,0,,Europe/Prague,0,
2:98:JDFS-7,,"Líšťany,,Brána",,50.31032,13.7970715,825,,0,,Europe/Prague,0,
2:99:JDFS-1,,"Bělušice,Bedřichův Světec,rozc.",,50.455520275,13.753661625,245,,0,,Europe/Prague,0,
2:99:JDFS-10,,"Podsedice,Chrášťany,rozc.1.0",,50.47222,13.9300966,751,,0,,Europe/Prague,0,
2:99:JDFS-12,,Korozluky,,50.4771156,13.7245255,203,,0,,Europe/Prague,0,
2:99:JDFS-2,,"Bělušice,,rozc.1.0",,50.452585,13.76684615,245,,0,,Europe/Prague,0,
2:99:JDFS-21,,"Obrnice,,škola",,50.5044,13.6965752,201,,0,,Europe/Prague,0,
2:99:JDFS-22,,Podsedice,,50.471241,13.9522889666667,734,,0,,Europe/Prague,0,
2:99:JDFS-23,,"Podsedice,,rozc.1.0",,50.47519,13.9500084,734,,0,,Europe/Prague,0,
2:99:JDFS-24,,"Korozluky,Sedlec",,50.4871483,13.7159953,203,,0,,Europe/Prague,0,
2:99:JDFS-25,,"Skršín,,odb.",,50.4630127,13.7517552,246,,0,,Europe/Prague,0,
2:99:JDFS-27,,"Třebenice,,nám.",,50.477685,13.9867301,731,,0,,Europe/Prague,0,
2:99:JDFS-30,,"Třebívlice,,rozc.0.5",,50.4643482,13.8985324,751,,0,,Europe/Prague,0,
2:99:JDFS-31,,"Libčeves,Židovice",,50.4447556,13.8649178,851,,0,,Europe/Prague,0,
2:99:JDFS-34,,"Patokryje,,lávka",,50.4999466,13.701066,201,,0,,Europe/Prague,0,
2:99:JDFS-35,,"Obrnice,,sídliště",,50.5030022,13.7001181,201,,0,,Europe/Prague,0,
2:99:JDFS-36,,"Most,,Obchodní dům PRIOR",,50.50556905,13.64054885,201,,0,,Europe/Prague,0,
2:99:JDFS-38,,"Třebenice,,Dlažkovická",,50.47699925,13.98712635,731,,0,,Europe/Prague,0,
2:99:JDFS-6,,Dlažkovice,,50.4663174666667,13.9665200333333,733,,0,,Europe/Prague,0,
2:99:JDFS-7,,"Třebívlice,Dřemčice,rozc.0.5",,50.46854355,13.91670275,751,,0,,Europe/Prague,0,
2:99:JDFS-8,,"Libčeves,Hnojnice",,50.43818,13.87434245,851,,0,,Europe/Prague,0,
2:99:JDFS-9,,"Libčeves,Hořenec,rozc.",,50.4620552,13.80761005,851,,0,,Europe/Prague,0,
2:9:JDFS-1,,"Levín,Horní Vysoké",,50.6131029,14.27844905,642,,0,,Europe/Prague,0,
2:9:JDFS-10,,"Lovečkovice,Touchořiny",,50.626585,14.23767565,641,,0,,Europe/Prague,0,
2:9:JDFS-11,,"Liběšice,,žel.st.",,50.5721054,14.2859039,635,,0,,Europe/Prague,0,
2:9:JDFS-2,,"Úštěk,,Hradec",,50.607893975,14.287111025,642,,0,,Europe/Prague,0,
2:9:JDFS-3,,"Lovečkovice,,Klínky",,50.62896365,14.247849,641,,0,,Europe/Prague,0,
2:9:JDFS-4,,Liběšice,,50.57206,14.284996,635,,0,,Europe/Prague,0,
2:9:JDFS-5,,"Liběšice,,škola",,50.56998445,14.29050105,635,,0,,Europe/Prague,0,
2:9:JDFS-6,,Lovečkovice,,50.62091,14.2636957,641,,0,,Europe/Prague,0,
2:9:JDFS-7,,"Lovečkovice,,Lukavice",,50.6238,14.25497005,641,,0,,Europe/Prague,0,
2:9:JDFS-8,,"Liběšice,Srdov",,50.5973,14.28640365,635,,0,,Europe/Prague,0,
2:9:JDFS-9,,"Liběšice,Trnobrany",,50.5782903,14.2892634,635,,0,,Europe/Prague,0,
